redcap_data_access_group_e,redcap_data_access_group_unlabelled,dag_id_e,place_name,postcode,country,lon,lat,ccg,tds_mean,postcode_start,city,imd_average_postcodes_new,all_people,ccg_name,updated_all_age_mid_2018,multiplication_factor,scotland_average_imd_rank,average_imd_rank,wales_average_imd_rank,wimd15
Cardiff and Vale University Health Board,cardiff_and_vale_u,7AH41,Cardiff and Vale University Health Board,CF14 4XW,Wales,-3.1902577,51.5067958,W11000029,0.2852880774520998,CF14,Cardiff,1040.481217191601,496413,Cardiff and Vale University Health Board,496413,1.0507740894870308,NA,4,4,NA
The Pennine Acute Hospitals NHS Trust,the_pennine_acute,01452,The Pennine Acute Hospitals NHS Trust,M8 5RB,England,-2.2294865,53.5178824,E38000217,3.3886492428788495,M8,Manchester,6931.867791364734,547627,NHS Manchester CCG,547627,1.088446853378968,NA,3,NA,31.94540754
The Pennine Acute Hospitals NHS Trust,the_pennine_acute,04152,The Pennine Acute Hospitals NHS Trust,M8 5RB,England,-2.2294865,53.5178824,E38000217,3.3886492428788495,M8,Manchester,6931.867791364734,547627,NHS Manchester CCG,547627,1.088446853378968,NA,3,NA,31.94540754
Aneurin Bevan University Health Board,aneurin_bevan_univ,11409,Aneurin Bevan University Health Board,NP11 5GH,Wales,-3.1404429,51.6624976,W11000028,-0.11906711624574683,NP11,Caerphilly,839.2555731549924,591225,Aneurin Bevan University Health Board,591225,1.0250904198323723,NA,5,5,NA
University College London Hospitals NHSFT,university_college,14142,University College London Hospitals NHSFT,NW1 2BU,England,-0.1363551,51.5250834,E38000027,4.9936313463509014,NW1,Camden,16052.945986403043,262226,NHS Camden CCG,262226,1.1901079250968967,NA,94,NA,NA
The Pennine Acute Hospitals NHS Trust,the_pennine_acute,14152,The Pennine Acute Hospitals NHS Trust,M8 5RB,England,-2.2294865,53.5178824,E38000217,3.3886492428788495,M8,Manchester,6931.867791364734,547627,NHS Manchester CCG,547627,1.088446853378968,NA,3,NA,31.94540754
The Pennine Acute Hospitals NHS Trust,the_pennine_acute,14153,The Pennine Acute Hospitals NHS Trust,M8 5RB,England,-2.2294865,53.5178824,E38000217,3.3886492428788495,M8,Manchester,6931.867791364734,547627,NHS Manchester CCG,547627,1.088446853378968,NA,3,NA,31.94540754
Alder Hey Children's Hospital,alder_hey_children,CBS25,Alder Hey Children's Hospital,L14 5AB,England,-2.8959056,53.4182405,E38000101,2.94159140577737,L14,Liverpool,8532.415682677978,494813.99999999994,NHS Liverpool CCG,494814,1.0608878359400962,NA,6,NA,36.82340586
"Queen Elizabeth University Hospital, Glasgow",queen_elizabeth_un,GN405,"Queen Elizabeth University Hospital, Glasgow",G51 4TF,Scotland,-4.3404361,55.8624213,S08000031,3.019275767976359,G51,Glasgow,2318.6194634568483,1174980,Greater Glasgow and Clyde,1174980,0.9683305203196286,2,2,NA,NA
Aberdeen Royal Infirmary,aberdeen_royal_inf,N100H,Aberdeen Royal Infirmary,AB25 2ZN,Scotland,-2.1359876,57.1546176,S08000020,-0.34231016921157476,AB25,Aberdeen,4395.31208499336,584550,Grampian,584550,1.0272185231460247,14,14,NA,NA
Livewell Southwest,livewell_southwest,NR501,Livewell Southwest,NA,NA,-108.5624256,37.3486428,NA,NA,NA,NA,NA,NA,NA,NA,NA,NA,NA,NA,NA
Manchester University Hospital,manchester_univers,R0A01,Manchester University Hospital,M23 9LT,England,-2.293175,53.3888321,E38000217,3.3886492428788495,M23,Manchester,6931.867791364734,547627,NHS Manchester CCG,547627,1.088446853378968,NA,3,NA,24.43053572
Worcestershire Health and Care NHS Trust,worcestershire_hea,R1A0C,Worcestershire Health and Care NHS Trust,WR5 1JR,England,-2.1798262,52.1924829,E38000166,-1.381885032945201,WR5,Worcester,18026.18422939068,307344,NHS South Worcestershire CCG,307344,1.0585548816399912,NA,130,NA,20.49980553
Torbay and south Devon Hospital,torbay_and_south_d,RA009,Torbay and south Devon Hospital,TQ2 7TD,England,-3.552757,50.4877399,E38000230,-0.9462035169519096,TQ2,Torbay,15893.936825769333,1194166,NHS Devon CCG,1194166,1.0532960761795893,NA,98,NA,19.7902124
Weston Area Health NHS Trust,weston_area_health,RA7C2,Weston Area Health NHS Trust,BS23 4TQ,England,-2.9725926,51.32237,E38000222,-0.29553926527199337,BS23,North Somerset,17490.317487720662,959967.9999999999,"NHS Bristol, North Somerset and South Gloucestershire CCG",959968,1.0743100405453647,NA,118,NA,18.43949181
Weston Area Health NHS Trust,weston_area_health,RA7C7,Weston Area Health NHS Trust,BS23 4TQ,England,-2.9725926,51.32237,E38000222,-0.29553926527199337,BS23,North Somerset,17490.317487720662,959967.9999999999,"NHS Bristol, North Somerset and South Gloucestershire CCG",959968,1.0743100405453647,NA,118,NA,18.43949181
Mid and South Essex University Hospitals Group,mid_and_south_esseb,RAJ02,Mid and South Essex University Hospitals Group,SS1 1ND,England,0.7115468,51.5377565,E38000168,0.6785578474584543,SS1,Southend-on-Sea,14682.917420235455,182463,NHS Southend CCG,182463,1.050703106105103,NA,92,NA,19.70386927
Mid and South Essex University Hospitals Group,mid_and_south_esseb,RAT01,Mid and South Essex University Hospitals Group,SS1 1ND,England,0.7115468,51.5377565,E38000168,0.6785578474584543,SS1,Southend-on-Sea,14682.917420235455,182463,NHS Southend CCG,182463,1.050703106105103,NA,92,NA,19.70386927
Shrewsbury & Telford Hospital NHS Trust,shrewsbury__telfor,RAWAS,Royal Shrewsbury Hospital,SY3 8XQ,England,-2.79373741149902,52.7093620300293,E38000147,-1.4797351692141338,SY3,Shropshire,17586.457890541977,320274,NHS Shropshire CCG,320274,1.0462060111913605,NA,117,NA,20.40802757
Bedford Hospital NHS Trust,bedford_hospital_n,RC112,Bedford Hospital NHS Trust,MK42 9DJ,England,-0.4732228,52.1286828,E38000010,-0.6866261882686733,MK42,Bedford,19293.393673218674,455229,NHS Bedfordshire CCG,455229,1.1053003447773515,NA,156,NA,17.34081635
East Sussex Healthcare NHS Trust,east_sussex_health,RCX01,East Sussex Healthcare NHS Trust,TN37 7PT,England,0.5681561,50.8849912,E38000076,0.030220124110404877,TN37,Hastings,12744.768688683156,188511,NHS Hastings and Rother CCG,188511,1.0424071841718185,NA,56,NA,18.45188995
Royal United Hospitals Bath NHSFT,royal_united_hospi,RD120,Royal United Hospitals Bath NHSFT,BA1 3NG,England,-2.3907418,51.3918072,E38000009,-0.708328537491947,BA1,Bath and North East Somerset,22720.443526739626,192106,NHS Bath and North East Somerset CCG,192106,1.0914121443505136,NA,180,NA,17.32128681
Poole Hospital NHS Trust,poole_hospital_nhs,RD300,Poole Hospital NHS Trust,BH15 2JB,England,-1.9737912,50.7213497,E38000045,-0.9709586146820578,BH15,Poole,17930.24531962363,772268,NHS Dorset CCG,772268,1.0379374254913372,NA,134,NA,16.56564718
Harrogate District Hospital,harrogate_district,RDC01,Harrogate District Hospital,HG2 7SX,England,-1.5176764,53.9936396,E38000073,-1.5121237908628848,HG2,Harrogate,22220.484355125922,160533,NHS Harrogate and Rural District CCG,160533,1.0168747505843452,NA,182,NA,19.77323534
Basildon and Thurrock University Hospitals NHS,basildon_and_thurr,RDHH0,Basildon and Thurrock University Hospitals NHS,SS16 5NL,England,0.4516979,51.55796,E38000007,-0.34131210197783873,SS16,Basildon,18777.40010970927,262412,NHS Basildon and Brentwood CCG,262412,1.0576949431273126,NA,116,NA,19.9555508
Ipswich Hospital,ipswich_hospital,RED03,Ipswich Hospital,IP4 5PD,England,1.1981153,52.0579075,E38000086,-1.1322339260994552,IP4,Ipswich,17970.836424679397,409248,NHS Ipswich and East Suffolk CCG,409248,1.0398934818624412,NA,124,NA,19.34137628
Aintree University Hospital,aintree_university,REM20,Aintree University Hospital,L9 7AL,England,-2.9317603,53.4656706,E38000101,2.94159140577737,L9,Liverpool,8532.415682677978,494813.99999999994,NHS Liverpool CCG,494814,1.0608878359400962,NA,6,NA,26.47323304
Cornwall Partnership NHSFT,cornwall_partnersh,RJ827,Cornwall Partnership NHSFT,PL31 2QN,England,-4.7385973,50.470256,E38000089,-1.1106077720448335,PL31,Cornwall,12897.27258661031,568210,NHS Kernow CCG,568210,1.063116023918754,NA,63,NA,NA
Lewisham and Greenwich NHS Trust,lewisham_and_green,RJ2319,Lewisham and Greenwich NHS Trust,SE4 2LA,England,-0.0422111,51.4570454,E38000098,4.080341077194303,SE4,Lewisham,10285.086181818182,303536,NHS Lewisham CCG,303536,1.1002265436685577,NA,29,NA,23.29614917
Imperial College Healthcare NHS Trust,imperial_college_h,RJY02,Imperial College Healthcare NHS Trust,W2 1NY,England,-0.1743487,51.5178108,E38000202,3.6833235765625165,W2,Westminster,16902.72077979619,226099.00000000003,NHS West London CCG,226099,1.0247463050503312,NA,78,NA,18.72961317
George Eliot Hospital,george_eliot_hospi,RL101,George Eliot Hospital,CV10 7DJ,England,-1.4760659,52.5118749,E38000195,-0.6463985156566265,CV10,Nuneaton & Bedworth,14012.218639262934,193752,NHS Warwickshire North CCG,193752,1.034635224760501,NA,84,NA,20.79574674
Wirral University Teaching Hospital NHFT,wirral_university,RLB14,Wirral University Teaching Hospital NHFT,CH49 5PE,England,-3.094562,53.370429,E38000208,-0.03450409333656787,CH49,Wirral,12809.24603250478,323235,NHS Wirral CCG,323235,1.0107948202374735,NA,60,NA,26.17837122
George Eliot Hospital,george_eliot_hospi,RLR01,George Eliot Hospital,CV10 7DJ,England,-1.4760659,52.5118749,E38000195,-0.6463985156566265,CV10,Nuneaton & Bedworth,14012.218639262934,193752,NHS Warwickshire North CCG,193752,1.034635224760501,NA,84,NA,20.79574674
Whiston Hospital,whiston_hospital,RMN01,Whiston Hospital,L35 5DR,England,-2.7853229,53.4212302,E38000091,1.4070944920314978,L35,Knowsley,5921.0394257553035,149571,NHS Knowsley CCG,149571,1.0252102568320618,NA,4,NA,26.48713247
"Chelsea and Westminster Hospital NHS, 369 Fulham Rd, London",chelsea__westminst,RMQ01,"Chelsea and Westminster Hospital NHS, 369 Fulham Rd, London",SW10 9NH,England,-0.182401,51.4849533,E38000202,3.6833235765625165,SW10,Kensington and Chelsea,16902.72077979619,226099.00000000003,NHS West London CCG,226099,1.0247463050503312,NA,78,NA,19.88733045
"Chelsea and Westminster Hospital NHS, 369 Fulham Rd, London",chelsea__westminst,RMQ91,"Chelsea and Westminster Hospital NHS, 369 Fulham Rd, London",SW10 9NH,England,-0.182401,51.4849533,E38000202,3.6833235765625165,SW10,Kensington and Chelsea,16902.72077979619,226099.00000000003,NHS West London CCG,226099,1.0247463050503312,NA,78,NA,19.88733045
Dartford and Gravesham NHS Trust,dartford_and_grave,RN070,Dartford and Gravesham NHS Trust,DA2 8DA,England,0.2589221,51.4353686,E38000043,-0.07062724620509174,DA2,Dartford,16861.133497027655,264478,"NHS Dartford, Gravesham and Swanley CCG",264478,1.075118191537364,NA,103,NA,NA
North West Anglia NHSFT,north_west_anglia,RNG90,Peterborough City Hospital,PE3 9GZ,England,-0.2785687,52.5837926,E38000026,-0.732581452258259,PE3,Peterborough,20399.11658448095,889111.9999999999,NHS Cambridgeshire and Peterborough CCG,889112,1.0599177445312034,NA,143,NA,18.29080498
North Cumbria Integrated Care NHSFT,north_cumbria_inte,RNN62,North Cumbria Integrated Care NHSFT,CA11 7QE,England,-2.753599,54.667373,E38000215,-1.3126112651783879,CA11,Eden,15108.37959132506,318631,NHS North Cumbria CCG,318631,0.6297827006471148,NA,86,NA,NA
West Cumberland Hospital,west_cumberland_ho,RNNBX,West Cumberland Hospital,CA28 8JG,England,-3.5631756,54.5302041,E38000215,-1.3126112651783879,CA28,Copeland,15108.37959132506,318631,NHS North Cumbria CCG,318631,0.6297827006471148,NA,86,NA,22.94454837
Royal Preston Hospital,royal_preston_hosp,RNX02,Royal Preston Hospital,PR2 9HT,England,-2.7040145,53.7908668,E38000227,0.164363765873978,PR2,Preston,13689.163659961065,202562,NHS Greater Preston CCG,202562,1.0045127248923889,NA,85,NA,24.60487045
Homerton University Hospital,homerton_universit,RQZM1,Homerton University Hospital,E9 6SR,England,-0.0461232,51.5504182,E38000035,4.703750131040954,E9,Hackney,14048.93409174312,288371,NHS City and Hackney CCG,288371,1.1369078830649135,NA,9,NA,25.09779396
University Hospitals Birmingham,university_hospitag,RRK02,University Hospitals Birmingham,B15 2TH,England,-1.9429313,52.4512054,E38000220,1.6044457153363676,B15,Birmingham,11080.681511230106,1179020,NHS Birmingham and Solihull CCG,1179020,1.0540412723018924,NA,20,NA,22.36155783
University Hospitals Birmingham,university_hospitag,RRK03,University Hospitals Birmingham,B15 2TH,England,-1.9429313,52.4512054,E38000220,1.6044457153363676,B15,Birmingham,11080.681511230106,1179020,NHS Birmingham and Solihull CCG,1179020,1.0540412723018924,NA,20,NA,22.36155783
Wirral University Teaching Hospital NHFT,wirral_university,RRL14,Wirral University Teaching Hospital NHFT,CH49 5PE,England,-3.094562,53.370429,E38000208,-0.03450409333656787,CH49,Wirral,12809.24603250478,323235,NHS Wirral CCG,323235,1.0107948202374735,NA,60,NA,26.17837122
North West Boroughs Healthcare NHSFT,north_west_borough,RTV33,North West Boroughs Healthcare NHSFT,WA2 8WA,England,-2.608387,53.4286247,E38000194,-0.018768137689710203,WA2,Warrington,16683.142804518666,209546.99999999997,NHS Warrington CCG,209547,1.0361918230907687,NA,126,NA,NA
East Kent Hospitals NHSFT,east_kent_hospital,RV001,William Harvey Hospital (Ashford),TN24 0LZ,England,0.916223049163818,51.141487121582,E38000002,-0.39039041968852745,TN24,Ashford,15518.462574326688,129281,NHS Ashford CCG,129281,1.0960103767506528,NA,109,NA,20.0538634
North West Boroughs Healthcare NHSFT,north_west_borough,RVT33,North West Boroughs Healthcare NHSFT,WA2 8WA,England,-2.608387,53.4286247,E38000194,-0.018768137689710203,WA2,Warrington,16683.142804518666,209546.99999999997,NHS Warrington CCG,209547,1.0361918230907687,NA,126,NA,NA
East Kent Hospitals NHSFT,east_kent_hospital,RVV00,Queen Elizabeth The Queen Mother Hospital,CT9 4AN,England,1.38939869403839,51.3780517578125,E38000184,0.8362759957351174,CT9,Kent,10709.07911576498,141819,NHS Thanet CCG,141819,1.0568837285558852,NA,28,NA,20.0538634
Lancashire & South Cumbria NHS Foundation Trust,lancashire__south,RW5JJ,Royal Preston Hospital,PR2 9HT,England,-2.7040145,53.7908668,E38000227,0.164363765873978,PR2,Preston,13689.163659961065,202562,NHS Greater Preston CCG,202562,1.0045127248923889,NA,85,NA,24.60487045
The Princess Alexandra Hospital,NA,RWQG0,The Princess Alexandra Hospital,CM20 1QX,England,0.0858092,51.7710499,E38000197,-0.6309830884721978,CM20,Harlow,19791.474051191526,306910,NHS West Essex CCG,306910,1.0729393174524378,NA,148,NA,19.46649994
Leicester Royal Infirmary,university_hospitak,RWWAA,Leicester Royal Infirmary,LE1 5WW,England,-1.1354407,52.6257466,E38000097,3.754855743517658,LE1,Leicester,9319.274472372468,355218,NHS Leicester City CCG,355218,1.0769435997562447,NA,18,NA,21.10790778
Cheshire and Wirral Partnership NHSFT,cheshire_and_wirra,RXADT,Cheshire and Wirral Partnership NHSFT,CH2 1BQ,England,-2.8998958,53.2120533,E38000196,-1.283603738783282,CH2,Cheshire West and Chester,17594.426404361224,234251,NHS West Cheshire CCG,234251,1.0300777007268778,NA,144,NA,23.24654306
The Queen Elizabeth Hospital Kings Lynn NHS Foundation Trust,the_queen_elizabet,RXC70,The Queen Elizabeth Hospital Kings Lynn NHS Foundation Trust,PE30 4ET,England,0.4462463,52.7564633,E38000203,-0.8182545947655667,PE30,West Norfolk,12296.256241033,175904.00000000003,NHS West Norfolk CCG,175904,1.03474158519512,NA,62,NA,18.91172341
NUH Nottingham University Hosptial,nuh_nottingham_uni,RXICC,NUH Nottingham University Hosptial,NG5 1PB,England,-1.1570212,52.9904528,E38000132,3.2785971768079634,NG5,Nottingham,8126.121404813148,331069,NHS Nottingham City CCG,331069,1.0830574456948443,NA,10,NA,21.62513959
The Queen Elizabeth Hospital Kings Lynn NHS Foundation Trust,the_queen_elizabet,RXV70,The Queen Elizabeth Hospital Kings Lynn NHS Foundation Trust,PE30 4ET,England,0.4462463,52.7564633,E38000203,-0.8182545947655667,PE30,West Norfolk,12296.256241033,175904.00000000003,NHS West Norfolk CCG,175904,1.03474158519512,NA,62,NA,18.91172341
Imperial College Healthcare NHS Trust,imperial_college_h,RYG03,Imperial College Healthcare NHS Trust,W2 1NY,England,-0.1743487,51.5178108,E38000202,3.6833235765625165,W2,Westminster,16902.72077979619,226099.00000000003,NHS West London CCG,226099,1.0247463050503312,NA,78,NA,18.72961317
University Hospitals Coventry and Warwickshire,university_hospitai,RYGHQ,University Hospitals Coventry and Warwickshire,CV2 2DX,England,-1.4376872,52.4211586,E38000038,1.271060675231041,CV2,Coventry,14598.659818634138,473979,NHS Coventry and Rugby CCG,473979,1.1365448943134269,NA,81,NA,21.49988233
Imperial College Healthcare NHS Trust,imperial_college_h,RYI01,Imperial College Healthcare NHS Trust,W2 1NY,England,-0.1743487,51.5178108,E38000202,3.6833235765625165,W2,Westminster,16902.72077979619,226099.00000000003,NHS West London CCG,226099,1.0247463050503312,NA,78,NA,18.72961317
Calderdale and Huddersfield NHS Trust,calderdale_and_hud,RYW01,Calderdale and Huddersfield NHS Trust,HD3 3EA,England,-1.8189892,53.6557163,E38000064,0.3338878268342915,HD3,Kirklees,15550.801026694046,245977,NHS Greater Huddersfield CCG,245977,1.0363864650439663,NA,89,NA,26.49275358
University Hospital of North Durham,university_hospitab,RZPCP,University Hospital of North Durham,DH1 5TW,England,-1.5933009,54.7885266,E38000116,-0.7281221053881309,DH1,County Durham,16013.41120354964,251666,NHS North Durham CCG,251666,1.0475433309468707,NA,88,NA,23.94938359
NHS Lothian,nhs_lothian,S341H,NHS Lothian,NA,NA,NA,NA,NA,NA,NA,NA,NA,NA,NA,NA,NA,NA,NA,NA,NA
NHS Lothian,nhs_lothian,SL116,Western General Hospital,EH4 2XU,Scotland,-3.2338808,55.9621052,S08000024,0.2606861477440891,EH4,Edinburgh,4524.216276124129,897770,Lothian,897770,1.0760112662551686,11,11,NA,NA
Mid and South Essex University Hospitals Group,mid_and_south_esseb,TAJ01,Mid and South Essex University Hospitals Group,SS1 1ND,England,0.7115468,51.5377565,E38000168,0.6785578474584543,SS1,Southend-on-Sea,14682.917420235455,182463,NHS Southend CCG,182463,1.050703106105103,NA,92,NA,19.70386927
University Hospitals of Leicester,university_hospitak,TWEAA,Leicester Royal Infirmary,LE1 5WW,England,-1.1348028,52.6278166,E38000097,3.754855743517658,LE1,Leicester,9319.274472372468,355218,NHS Leicester City CCG,355218,1.0769435997562447,NA,18,NA,21.10790778
Bronglais General Hospital,bronglais_general,WB2AJ,Bronglais General Hospital,SY23 1ER,Wales,-4.0711821,52.4164121,W11000025,-1.364551584439131,SY23,Ceredigion,966.9665478790665,385615,Hywel Dda University Health Board,385615,1.009098807237176,NA,3,3,NA
Prince Philip Hospital,prince_philip_hosp,WB3AL,Prince Philip Hospital,SA14 8QF,Wales,-4.134687,51.6922205,W11000025,-1.364551584439131,SA14,Carmarthenshire,966.9665478790665,385615,Hywel Dda University Health Board,385615,1.009098807237176,NA,3,3,NA
Withybush General Hospital,withybush_general,WF1BL,Withybush General Hospital,SA61 2PZ,Wales,-4.9664014,51.8130048,W11000025,-1.364551584439131,SA61,Pembrokeshire,966.9665478790665,385615,Hywel Dda University Health Board,385615,1.009098807237176,NA,3,3,NA
Glan Clwyd Hospital,glan_clwyd_hospita,7A1A1,Ysbyty Glan Clwyd,LL18 5UJ,Wales,-3.4971896,53.2726551,W11000023,-0.6466191216551161,LL18,Conwy,1012.1948634325316,698369,Betsi Cadwaladr University Health Board,698369,1.0151641792780444,NA,2,2,NA
Wrexham Maelor Hospital,wrexham_maelor_hos,7A1A4,Wrexham Maelor Hospital,LL13 7TD,Wales,-3.0101803,53.0461734,W11000023,-0.6466191216551161,LL13,Wrexham,1012.1948634325316,698369,Betsi Cadwaladr University Health Board,698369,1.0151641792780444,NA,2,2,NA
Betsi Cadwaladr University Health Board,betsi_cadwaladr_un,7A1AU,Ysbyty Gwynedd,LL57 2PW,Wales,-4.1577568,53.2086374,W11000023,-0.6466191216551161,LL57,Gwynedd,1012.1948634325316,698369,Betsi Cadwaladr University Health Board,698369,1.0151641792780444,NA,2,2,NA
Glanwili General Hospital,glanwili_general_h,7A2AA,Glangwili Hospital Child Health Section,SA31 2AF,Wales,-4.2833874,51.8673069,W11000025,-1.364551584439131,SA31,Carmarthenshire,966.9665478790665,385615,Hywel Dda University Health Board,385615,1.009098807237176,NA,3,3,NA
"Morriston Hospital, Swansea",morriston_hospital,7A3YA,Abertawe Bro Morgannwg University Lhb Bridgend Locality Office,CF31 3TP,Wales,-3.5506886,51.5024646,W11000030,-0.1734192073994886,CF31,Bridgend,816.2126795517786,445190,Cwm Taf Morgannwg University Health Board,445190,1.5183212146842557,NA,7,7,NA
University Hospital of Wales,university_hospitad,7A4BV,University Hospital Of Wales,CF14 4XW,Wales,-3.1889835,51.5062635,W11000029,0.2852880774520998,CF14,Cardiff,1040.481217191601,496413,Cardiff and Vale University Health Board,496413,1.0507740894870308,NA,4,4,NA
Cardiff and Vale University Health Board,cardiff_and_vale_u,7A4H1,Noahs Ark Childrens Hospital For Wales,CF14 4XW,Wales,-3.1889835,51.5062635,W11000029,0.2852880774520998,CF14,Cardiff,1040.481217191601,496413,Cardiff and Vale University Health Board,496413,1.0507740894870308,NA,4,4,NA
Cwm Taf Morgannwg University Health Board,cwm_taf_morgannwg,7A5B1,The Royal Glamorgan Hospital,CF72 8XR,Wales,-3.3905151,51.5479884,W11000030,-0.1734192073994886,CF72,Rhondda Cynon Taf,816.2126795517786,445190,Cwm Taf Morgannwg University Health Board,445190,1.5183212146842557,NA,7,7,NA
Cwm Taf Morgannwg University Health Board,cwm_taf_morgannwg,7A5B3,Prince Charles Hospital Site,CF47 9DT,Wales,-3.3861006,51.7643331,W11000030,-0.1734192073994886,CF47,Merthyr Tydfil,816.2126795517786,445190,Cwm Taf Morgannwg University Health Board,445190,1.5183212146842557,NA,7,7,NA
NHS Ayrshire and Arran,nhs_ayrshire_and_a,A111H,University Hospital Crosshouse,KA2 0BE,Scotland,-4.5401309,55.6135442,S08000015,-0.025508140941622744,KA2,East Ayrshire,2643.6560590094837,369670,Ayrshire and Arran,369670,0.9891841846127499,1,1,NA,NA
NHS Ayrshire and Arran,nhs_ayrshire_and_a,A210H,University Hospital Ayr,KA6 6DX,Scotland,-4.5939607,55.428935,S08000015,-0.5392163323203861,KA6,East Ayrshire,3124.622586439156,369670,Ayrshire and Arran,369670,0.9891841846127499,1,1,NA,NA
Borders General Hospital,borders_general_ho,B120H,Borders General Hospital,TD6 9BS,Scotland,-2.7419408,55.5954785,S08000016,-1.3371986376510818,TD6,Scottish Borders,3814.8522024729523,115270,Borders,115270,1.0122947220514622,10,10,NA,NA
Golden Jubilee National Hospital,golden_jubilee_nat,D102H,Golden Jubilee National Hospital,G81 4DY,Scotland,-4.4203539,55.9059298,S08000031,1.202392276795618,G81,West Dunbartonshire,2177.8489208633096,1174980,Greater Glasgow and Clyde,1174980,0.9683305203196286,2,2,NA,NA
Victoria Hospital Kirkcaldy,victoria_hospital,F701H,Cameron Hospital,KY8 5RR,Scotland,-3.0606955,56.1866783,S08000029,0.17353695425601268,KY8,Fife,2600.282911392405,371910,Fife,371910,1.0183790710792502,6,6,NA,NA
Victoria Hospital Kirkcaldy,victoria_hospital,F704H,Victoria Hospital,KY2 5AH,Scotland,-3.1601871,56.1244623,S08000029,0.17353695425601268,KY2,Fife,2600.282911392405,371910,Fife,371910,1.0183790710792502,6,6,NA,NA
Victoria Hospital Kirkcaldy,victoria_hospital,F708H,Adamson Hospital,KY15 4JG,Scotland,-3.0181746,56.3244035,S08000029,-1.0932333169974748,KY15,Fife,4120.599957912458,371910,Fife,371910,1.0183790710792502,6,6,NA,NA
Victoria Hospital Kirkcaldy,victoria_hospital,F716H,Glenrothes Hospital,KY7 5TG,Scotland,-3.182677,56.2049141,S08000029,-1.0932333169974748,KY7,Fife,4120.599957912458,371910,Fife,371910,1.0183790710792502,6,6,NA,NA
"Queen Elizabeth University Hospital, Glasgow University Hospital Monklands Airdrie",queen_elizabeth_un,G405H,Queen Elizabeth University Hospital,G51 4TF,Scotland,-4.3392518,55.8626363,S08000031,3.019275767976359,G51,Glasgow,2318.6194634568483,1174980,Greater Glasgow and Clyde,1174980,0.9683305203196286,2,2,NA,NA
Lanarkshire NHSFT,lanarkshire_nhsft,L106H,University Hospital Monklands,ML6 0JS,Scotland,-3.9998893,55.8657665,S08000032,0.6456173645753805,ML6,North Lanarkshire,2537.5623200329082,659200,Lanarkshire,659200,1.1471589890661409,3,3,NA,NA
Lanarkshire NHSFT,lanarkshire_nhsft,L302H,University Hospital Hairmyres,G75 8RG,Scotland,-4.221977,55.7594711,S08000032,-0.5648442316815383,G75,South Lanarkshire,3234.817940702851,659200,Lanarkshire,659200,1.1471589890661409,3,3,NA,NA
Lanarkshire NHSFT,lanarkshire_nhsft,L308H,University Hospital Wishaw,ML2 0DP,Scotland,-3.9420159,55.7736351,S08000032,0.6456173645753805,ML2,North Lanarkshire,2537.5623200329082,659200,Lanarkshire,659200,1.1471589890661409,3,3,NA,NA
Aberdeen Royal Infirmary,aberdeen_royal_inf,N101H,Aberdeen Royal Infirmary,AB25 2ZN,Scotland,-2.1372687,57.1546973,S08000020,-0.34231016921157476,AB25,Aberdeen,4395.31208499336,584550,Grampian,584550,1.0272185231460247,14,14,NA,NA
NHS Lothian,nhs_lothian,S116H,Western General Hospital,EH4 2XU,Scotland,-3.2338808,55.9621052,S08000024,0.2606861477440891,EH4,Edinburgh,4524.216276124129,897770,Lothian,897770,1.0760112662551686,11,11,NA,NA
NHS Lothian,nhs_lothian,S308H,St John's Hospital,EH54 6PP,Scotland,-3.5235687,55.8914559,S08000024,-0.3838932582336999,EH54,West Lothian,3405.3798114689707,897770,Lothian,897770,1.0760112662551686,11,11,NA,NA
NHS Lothian,nhs_lothian,S314H,Royal Infirmary Of Edinburgh At Little France,EH16 4SA,Scotland,-3.1347719,55.9218084,S08000024,0.2606861477440891,EH16,Edinburgh,4524.216276124129,897770,Lothian,897770,1.0760112662551686,11,11,NA,NA
Ninewells Hospital,ninewells_hospital,T101H,Ninewells Hospital,DD1 9SY,Scotland,-2.9913622,56.461653,S08000030,1.9244357404030463,DD1,Dundee,2726.8699639698657,416080.00000000006,Tayside,416080,1.0155500611409563,9,9,NA,NA
Manchester University Hospital,manchester_univers,R0A02,Manchester Royal Infirmary,M13 9WL,England,-2.22489070892334,53.461673736572266,E38000217,3.3886492428788495,M13,Manchester,6931.867791364734,547627,NHS Manchester CCG,547627,1.088446853378968,NA,3,NA,24.43053572
Manchester University Hospital,manchester_univers,R0A03,Royal Manchester Children's Hospital,M13 9WL,England,-2.224475860595703,53.46046829223633,E38000217,3.3886492428788495,M13,Manchester,6931.867791364734,547627,NHS Manchester CCG,547627,1.088446853378968,NA,3,NA,24.43053572
Manchester University Hospital,manchester_univers,R0A07,Wythenshawe Hospital,M23 9LT,England,-2.2918150424957275,53.388851165771484,E38000217,3.3886492428788495,M23,Manchester,6931.867791364734,547627,NHS Manchester CCG,547627,1.088446853378968,NA,3,NA,24.43053572
Manchester University Hospital,manchester_univers,R0A09,Trafford General Hospital,M41 5SL,England,-2.370682954788208,53.45406723022461,E38000187,-0.5717569068748974,M41,Trafford,20443.38769931663,236369.99999999997,NHS Trafford CCG,236370,1.0432169054365383,NA,151,NA,NA
"St Mary's Hospital, Isle of Wight",st_marys_hospital,R1F01,St Mary's Hospital,PO30 5TG,England,-1.3013159036636353,50.710845947265625,E38000087,-0.47112305051735115,PO30,Isle of Wight,12877.953040432983,141538,NHS Isle of Wight CCG,141538,1.023671934329006,NA,61,NA,18.44113579
St Bartholomews,st_bartholomews,R1H12,The Royal London Hospital,E1 1FR,England,-0.060150060802698135,51.518699645996094,E38000186,5.972540402028157,E1,Tower Hamlets,10773.227622999408,317705,NHS Tower Hamlets CCG,317705,1.2503345192368238,NA,22,NA,20.71562463
Northwick Park,northwick_park,R1K01,Northwick Park Hospital,HA1 3UJ,England,-0.3220227360725403,51.575408935546875,E38000020,4.874830928579013,HA1,Harrow,10708.141955232448,330795,NHS Brent CCG,330795,1.0629147052680623,NA,42,NA,19.43258383
Northwick Park,northwick_park,R1K02,Central Middlesex Hospital,NW10 7NS,England,-0.26914629340171814,51.53093719482422,E38000020,4.874830928579013,NW10,Brent,10708.141955232448,330795,NHS Brent CCG,330795,1.0629147052680623,NA,42,NA,19.43258383
Royal Surrey NHSFT,royal_surrey_nhsft,RA201,Royal Surrey County Hospital,GU2 7XX,England,-0.6074482798576355,51.24101638793945,E38000214,-1.5219007092988148,GU2,Guildford,25714.57654944628,209413.00000000003,NHS Guildford and Waverley CCG,209413,1.0283490473384405,NA,190,NA,9.518797559
Yeovil District Hospital,yeovil_district_ho,RA430,Yeovil District Hospital,BA21 4AT,England,-2.6346983909606934,50.944847106933594,E38000150,-1.4620242768664284,BA21,South Somerset,16541.887105947353,559399,NHS Somerset CCG,559399,1.0555255749360344,NA,105,NA,17.20789586
Bristol Royal Infirmary,bristol_royal_infi,RA701,Bristol Royal Infirmary,BS2 8HW,England,-2.5961246490478516,51.45918655395508,E38000222,-0.29553926527199337,BS2,Bristol,17490.317487720662,959967.9999999999,"NHS Bristol, North Somerset and South Gloucestershire CCG",959968,1.0743100405453647,NA,118,NA,18.43949181
University Hospitals Bristol NHFT,university_hospitah,RA707,St Michael's Hospital,BS2 8EG,England,-2.599376916885376,51.459136962890625,E38000222,-0.29553926527199337,BS2,Bristol,17490.317487720662,959967.9999999999,"NHS Bristol, North Somerset and South Gloucestershire CCG",959968,1.0743100405453647,NA,118,NA,18.43949181
University Hospitals Bristol NHFT,university_hospitah,RA723,Bristol Royal Hospital For Children,BS2 8BJ,England,-2.5973148345947266,51.4577522277832,E38000222,-0.29553926527199337,BS2,Bristol,17490.317487720662,959967.9999999999,"NHS Bristol, North Somerset and South Gloucestershire CCG",959968,1.0743100405453647,NA,118,NA,18.43949181
Torbay and south Devon Hospital,torbay_and_south_d,RA901,Torbay Hospital,TQ2 7AA,England,-3.55379056930542,50.482322692871094,E38000230,-0.9462035169519096,TQ2,Torbay,15893.936825769333,1194166,NHS Devon CCG,1194166,1.0532960761795893,NA,98,NA,19.7902124
Bradford Teaching Hospitals NHSFT,bradford_teaching,RAE01,Bradford Royal Infirmary,BD9 6RJ,England,-1.7946816682815552,53.80598449707031,E38000019,0.9191928711119866,BD9,Bradford,9911.491746389045,341873,NHS Bradford Districts CCG,341873,1.029545687251176,NA,13,NA,26.09110115
Mid and South Essex University Hospitals Group,mid_and_south_esseb,RAJ01,Southend Hospital,SS0 0RY,England,0.6886317729949951,51.553836822509766,E38000168,0.6785578474584543,SS0,Southend-on-Sea,14682.917420235455,182463,NHS Southend CCG,182463,1.050703106105103,NA,92,NA,19.70386927
Royal Free Hospital,royal_free_hospita,RAL01,Royal Free Hospital,NW3 2QG,England,-0.16530923545360565,51.55322265625,E38000027,4.9936313463509014,NW3,Camden,16052.945986403043,262226,NHS Camden CCG,262226,1.1901079250968967,NA,94,NA,19.8407777
North Middlesex University Hospital NHST,north_middlesex_un,RAPNM,North Middlesex University Hospital,N18 1QX,England,-0.07373514026403427,51.613094329833984,E38000057,2.603296394876533,N18,Enfield,13703.69021794222,333869,NHS Enfield CCG,333869,1.0684970524793098,NA,52,NA,25.03086609
Hillingdon Hospital,hillingdon_hospita,RAS01,Hillingdon Hospital,UB8 3NN,England,-0.4611603617668152,51.52607727050781,E38000082,1.670894113985834,UB8,Hillingdon,16408.8142044907,304824,NHS Hillingdon CCG,304824,1.112756264236902,NA,108,NA,18.75390888
Kingston Hospital NHS Foundation Trust,kingston_hospital,RAX01,Kingston Hospital,KT2 7QB,England,-0.2826094925403595,51.414825439453125,E38000090,0.3301912681908488,KT2,Kingston upon Thames,22529.488008164655,175470,NHS Kingston CCG,175470,1.0962763963513682,NA,177,NA,NA
Musgrove Park Hospital,musgrove_park_hosp,RBA11,Musgrove Park Hospital,TA1 5DA,England,-3.1216795444488525,51.01157760620117,E38000150,-1.4620242768664284,TA1,Somerset,16541.887105947353,559399,NHS Somerset CCG,559399,1.0555255749360344,NA,105,NA,19.45795831
Dorset County Hospital NHFT,dorset_county_hosp,RBD01,Dorset County Hospital,DT1 2JY,England,-2.446922540664673,50.71294403076172,E38000045,-0.9709586146820578,DT1,West Dorset,17930.24531962363,772268,NHS Dorset CCG,772268,1.0379374254913372,NA,134,NA,17.17079967
Walsall Healthcare NHST,walsall_healthcare,RBK02,Manor Hospital,WS2 9PS,England,-1.9989091157913208,52.582332611083984,E38000191,2.04983188490599,WS2,Walsall,9733.129868385711,283378,NHS Walsall CCG,283378,1.0521864081418966,NA,25,NA,26.70602555
Wirral University Teaching Hospital NHFT,wirral_university,RBL14,Arrowe Park Hospital,CH49 5PE,England,-3.0968008041381836,53.36962890625,E38000208,-0.03450409333656787,CH49,Wirral,12809.24603250478,323235,NHS Wirral CCG,323235,1.0107948202374735,NA,60,NA,26.17837122
Whiston Hospital,whiston_hospital,RBN01,Whiston Hospital,L35 5DR,England,-2.7849390506744385,53.420475006103516,E38000091,1.4070944920314978,L35,Knowsley,5921.0394257553035,149571,NHS Knowsley CCG,149571,1.0252102568320618,NA,4,NA,26.48713247
Royal Liverpool & Broadgreen University Hospitals NHSFT,royal_liverpool__b,RBQHQ,Liverpool Heart And Chest Hospital,L14 3PE,England,-2.897974729537964,53.411155700683594,E38000101,2.94159140577737,L14,Liverpool,8532.415682677978,494813.99999999994,NHS Liverpool CCG,494814,1.0608878359400962,NA,6,NA,26.99273069
Mid Cheshire Hospital Trust,mid_cheshire_hospi,RBT20,Leighton Hospital,CW1 4QJ,England,-2.475848436355591,53.11769104003906,E38000151,-1.7094942837356994,CW1,Cheshire East,19081.002210088405,183494,NHS South Cheshire CCG,183494,1.0448175922288083,NA,141,NA,20.84510506
The Christie NHSFT,the_christie_nhsft,RBV01,The Christie Main Site,M20 4BX,England,-2.2301101684570312,53.429771423339844,E38000217,3.3886492428788495,M20,Manchester,6931.867791364734,547627,NHS Manchester CCG,547627,1.088446853378968,NA,3,NA,23.4337857
Northern Devon Healthcare Trust,northern_devon_hea,RBZ12,North Devon District Hospital,EX31 4JB,England,-4.050417900085449,51.0921745300293,E38000230,-0.9462035169519096,EX31,Exeter,15893.936825769333,1194166,NHS Devon CCG,1194166,1.0532960761795893,NA,98,NA,18.28983721
Luton and Dunstable,luton_and_dunstabl,RC971,Luton And Dunstable Hospital,LU4 0DZ,England,-0.47441545128822327,51.89414596557617,E38000102,2.9855029995619233,LU4,Luton,10305.236310107948,214109,NHS Luton CCG,214109,1.0536808381848515,NA,45,NA,NA
York Teaching Hospital,york_teaching_hosp,RCB55,The York Hospital,YO31 8HE,England,-1.084269642829895,53.96895217895508,E38000188,-1.2913506890821134,YO31,York,22909.682446736635,362955,NHS Vale of York CCG,362955,1.0578416771346715,NA,176,NA,21.52355496
York Teaching Hospital,york_teaching_hosp,RCBCA,Scarborough Hospital,YO12 6QL,England,-0.4347379803657532,54.281707763671875,E38000145,-0.0351329163118146,YO12,North Yorkshire,13329.54748603352,113338,NHS Scarborough and Ryedale CCG,113338,1.0279251580369857,NA,70,NA,NA
Harrogate District Hospital,harrogate_district,RCD01,Harrogate District Hospital,HG2 7SX,England,-1.5175583362579346,53.99380874633789,E38000073,-1.5121237908628848,HG2,Harrogate,22220.484355125922,160533,NHS Harrogate and Rural District CCG,160533,1.0168747505843452,NA,182,NA,19.77323534
Airedale General Hospital,airedale_general_h,RCF22,Airedale General Hospital,BD20 6TD,England,-1.9626796245574951,53.89801788330078,E38000001,-0.989341675576139,BD20,Bradford,18124.566574377044,160106,"NHS Airedale, Wharfedale and Craven CCG",160106,1.0113128888608154,NA,121,NA,24.03109699
Sheffield Children's NHS Foundation Trust,sheffield_children,RCUEF,Sheffield Children's Hospital,S10 2TH,England,-1.4906138181686401,53.3806037902832,E38000146,1.4158899028389818,S10,Sheffield,14145.211985453012,582506,NHS Sheffield CCG,582506,1.0539318036251262,NA,68,NA,25.04419468
The Queen Elizabeth Hospital Kings Lynn NHS Foundation Trust,the_queen_elizabet,RCX70,The Queen Elizabeth Hospital,PE30 4ET,England,0.44669315218925476,52.75660705566406,E38000203,-0.8182545947655667,PE30,West Norfolk,12296.256241033,175904.00000000003,NHS West Norfolk CCG,175904,1.03474158519512,NA,62,NA,18.91172341
Royal United Hospitals Bath NHSFT,royal_united_hospi,RD130,Royal United Hospitals,BA1 3NG,England,-2.3907418,51.3918072,E38000009,-0.708328537491947,BA1,Bath and North East Somerset,22720.443526739626,192106,NHS Bath and North East Somerset CCG,192106,1.0914121443505136,NA,180,NA,17.32128681
Milton Keynes University Hospital,milton_keynes_univ,RD816,Milton Keynes Hospital,MK6 5LD,England,-0.7357665300369263,52.02637481689453,E38000107,-0.3097216392921022,MK6,Milton Keynes,19499.930147668823,275002,NHS Milton Keynes CCG,275002,1.0813227430009438,NA,127,NA,18.3416212
Basildon and Thurrock University Hospitals NHS,basildon_and_thurr,RDDH0,Basildon University Hospital,SS16 5NL,England,0.4505711793899536,51.557674407958984,E38000007,-0.34131210197783873,SS16,Basildon,18777.40010970927,262412,NHS Basildon and Brentwood CCG,262412,1.0576949431273126,NA,116,NA,19.9555508
Ipswich Hospital,ipswich_hospital,RDE03,Ipswich Hospital,IP4 5PD,England,1.1979291439056396,52.056846618652344,E38000086,-1.1322339260994552,IP4,Ipswich,17970.836424679397,409248,NHS Ipswich and East Suffolk CCG,409248,1.0398934818624412,NA,124,NA,19.34137628
East Suffolk and North Essex NHFT,east_suffolk_and_n,RDEE4,Colchester General Hospital,CO4 5JL,England,0.8991968035697937,51.91016387939453,E38000117,-0.7342190607179743,CO4,Colchester,15160.997088568802,338326.00000000006,NHS North East Essex CCG,338326,1.0874383682285407,NA,83,NA,19.34137628
Frimley Health NHSFT,frimley_health_nhs,RDU01,Frimley Park Hospital,GU16 7UJ,England,-0.7420144081115723,51.31966781616211,E38000178,-1.0891181312169607,GU16,Surrey Heath,23395.86397680599,96474.00000000001,NHS Surrey Heath CCG,96474,1.035495400732019,NA,187,NA,15.64859885
Frimley Health NHSFT,frimley_health_nhs,RDU50,Wexham Park Hospital,SL2 4HL,England,-0.5739779472351074,51.53200912475586,E38000224,0.0784302046119443,SL2,South Buckinghamshire,21385.920798420237,434462.99999999994,NHS East Berkshire CCG,434463,1.0633564787053602,NA,158,NA,15.64859885
Royal Bournemouth and Christchurch Hospitals NHS Foundation Trust,royal_bournemouth,RDZ20,Royal Bournemouth Hospital,BH7 7DW,England,-1.8205056190490723,50.74748611450195,E38000045,-0.9709586146820578,BH7,Bournemouth,17930.24531962363,772268,NHS Dorset CCG,772268,1.0379374254913372,NA,134,NA,16.95200192
Royal Cornwall,royal_cornwall,REF12,Royal Cornwall Hospital (Treliske),TR1 3LQ,England,-5.094248294830322,50.26654052734375,E38000089,-1.1106077720448335,TR1,Cornwall,12897.27258661031,568210,NHS Kernow CCG,568210,1.063116023918754,NA,63,NA,18.2405421
Aintree University Hospital,aintree_university,REM21,Aintree University Hospital,L9 7AL,England,-2.931089401245117,53.46632766723633,E38000101,2.94159140577737,L9,Liverpool,8532.415682677978,494813.99999999994,NHS Liverpool CCG,494814,1.0608878359400962,NA,6,NA,26.47323304
Royal Liverpool & Broadgreen University Hospitals NHSFT,royal_liverpool__b,REMRQ,Royal Liverpool University Hospital,L7 8XP,England,-2.964794158935547,53.40951156616211,E38000101,2.94159140577737,L7,Liverpool,8532.415682677978,494813.99999999994,NHS Liverpool CCG,494814,1.0608878359400962,NA,6,NA,26.47323304
Liverpool Women's Hospital,liverpool_womens_h,REP01,Liverpool Women's Nhs Foundation Trust,L8 7SS,England,-2.9600625038146973,53.39846420288086,E38000101,2.94159140577737,L8,Liverpool,8532.415682677978,494813.99999999994,NHS Liverpool CCG,494814,1.0608878359400962,NA,6,NA,NA
Barking Havering and Redbridge University NHST,barking_havering_a,RF4QH,Queen's Hospital,RM7 0AG,England,0.18040530383586884,51.569427490234375,E38000077,0.656875976757141,RM7,Havering,17377.669380896987,257810,NHS Havering CCG,257810,1.0867420921292237,NA,135,NA,22.57417358
Barnsley Hospital,barnsley_hospital,RFFAA,Barnsley Hospital,S75 2EP,England,-1.4994779825210571,53.55913543701172,E38000006,0.045752345664667855,S75,Barnsley,11442.053850676073,245199,NHS Barnsley CCG,245199,1.06045298653669,NA,31,NA,25.9944111
The Rotherham NHSFT,the_rotherham_nhsf,RFRPA,Rotherham Hospital,S60 2UD,England,-1.3428654670715332,53.41397476196289,E38000141,0.3147685246315676,S60,Rotherham,11292.651270456503,264671,NHS Rotherham CCG,264671,1.0287274564676616,NA,43,NA,27.12458186
Chesterfield Royal Hospital NHSFT,chesterfield_royal,RFSDA,Chesterfield Royal Hospital,S44 5BL,England,-1.4000365734100342,53.2362174987793,E38000229,-0.5541534844335485,S44,Bolsover,16683.44550388734,1019900.0000000001,NHS Derby and Derbyshire CCG,1019900,1.0350657838651929,NA,102,NA,21.62862057
Royal Papworth Hospital NHSFT,royal_papworth_hos,RGM21,Royal Papworth Hospital,CB2 0AY,England,0.13618962466716766,52.172386169433594,E38000026,-0.732581452258259,CB2,Cambridge,20399.11658448095,889111.9999999999,NHS Cambridgeshire and Peterborough CCG,889112,1.0599177445312034,NA,143,NA,18.33006313
North West Anglia NHSFT,north_west_anglia,RGN80,Peterborough City Hospital,PE3 9GZ,England,-0.2785687,52.5837926,E38000026,-0.732581452258259,PE3,Peterborough,20399.11658448095,889111.9999999999,NHS Cambridgeshire and Peterborough CCG,889112,1.0599177445312034,NA,143,NA,18.29080498
North West Anglia NHSFT,north_west_anglia,RGN90,Hinchingbrooke Hospital,PE29 6NT,England,-0.20266403257846832,52.333351135253906,E38000026,-0.732581452258259,PE29,Huntingdonshire,20399.11658448095,889111.9999999999,NHS Cambridgeshire and Peterborough CCG,889112,1.0599177445312034,NA,143,NA,18.29080498
James Paget University Hospitals,james_paget_univer,RGP75,James Paget University Hospital,NR31 6LA,England,1.7179944515228271,52.561668395996094,E38000063,-0.15019446646445753,NR31,Norfolk,11522.821886691609,217681,NHS Great Yarmouth and Waveney CCG,217681,1.024231759131609,NA,44,NA,21.53102097
West Suffolk Hospital,west_suffolk_hospi,RGR50,West Suffolk Hospital,IP33 2QZ,England,0.7091901898384094,52.23166275024414,E38000204,-1.2934510839325346,IP33,St Edmundsbury,19425.504425734023,230997,NHS West Suffolk CCG,230997,1.0530449806483377,NA,137,NA,17.07951952
Addenbrookes Hospital,addenbrookes_hospi,RGT01,Addenbrooke's,CB2 0QQ,England,0.14075323939323425,52.175132751464844,E38000026,-0.732581452258259,CB2,Cambridge,20399.11658448095,889111.9999999999,NHS Cambridgeshire and Peterborough CCG,889112,1.0599177445312034,NA,143,NA,17.96802159
Royal Devon and Exeter Hospital,royal_devon_and_ex,RH801,Royal Devon And Exeter Hospital (Wonford),EX2 5DW,England,-3.506666421890259,50.71670913696289,E38000230,-0.9462035169519096,EX2,Exeter,15893.936825769333,1194166,NHS Devon CCG,1194166,1.0532960761795893,NA,98,NA,18.29886947
University Hospital Southampton NHS Foundation Trust,queen_elizabeth_un,RHM01,Southampton General Hospital,SO16 6YD,England,-1.4350899457931519,50.933021545410156,E38000167,1.3089719254707208,SO16,Southampton,11901.366624436936,252796.00000000003,NHS Southampton CCG,252796,1.067181128156635,NA,47,NA,16.04219923
Sheffield Teaching Hospitals NHS Foundation Trust,sheffield_teaching,RHQHH,Royal Hallamshire Hospital,S10 2JF,England,-1.4933162927627563,53.37835693359375,E38000146,1.4158899028389818,S10,Sheffield,14145.211985453012,582506,NHS Sheffield CCG,582506,1.0539318036251262,NA,68,NA,23.78973169
Portsmouth Hospitals NHS Trust,portsmouth_hospita,RHU03,Queen Alexandra Hospital,PO6 3LY,England,-1.0699176788330078,50.85029983520508,E38000137,1.9459723881733788,PO6,Hampshire,10609.646244751983,215133.00000000003,NHS Portsmouth CCG,215133,1.0491426732209739,NA,48,NA,16.88083179
Royal Berkshire Hospital,royal_berkshire_ho,RHW01,Royal Berkshire Hospital,RG1 5AN,England,-0.9593157768249512,51.45102310180664,E38000221,-0.8465626872550704,RG1,Berkshire,22572.339001565742,489709.00000000006,NHS Berkshire West CCG,489709,1.0556348350937703,NA,179,NA,14.82074302
Guys and St Thomas,guys_and_st_thomas,RJ122,St Thomas',SE1 7EH,England,-0.11889063566923141,51.49795913696289,E38000092,4.540694344534207,SE1,Southwark,11592.460686066679,325917,NHS Lambeth CCG,325917,1.075328454630039,NA,38,NA,19.00848272
Lewisham and Greenwich NHS Trust,lewisham_and_green,RJ224,University Hospital Lewisham,SE13 6LH,England,-0.01703643798828125,51.45433044433594,E38000098,4.080341077194303,SE13,Lewisham,10285.086181818182,303536,NHS Lewisham CCG,303536,1.1002265436685577,NA,29,NA,23.29614917
Lewisham and Greenwich NHS Trust,lewisham_and_green,RJ231,Queen Elizabeth Hospital,SE18 4QH,England,0.05005710944533348,51.47819137573242,E38000066,3.573914008136861,SE18,Greenwich,12165.7978362878,286186,NHS Greenwich CCG,286186,1.1242511500371233,NA,53,NA,23.29614917
Croydon Health Services NHS Trust,croydon_health_ser,RJ611,Croydon University Hospital,CR7 7YE,England,-0.10876881331205368,51.389129638671875,E38000040,1.7781269902773813,CR7,Croydon,14858.864456213063,385345.99999999994,NHS Croydon CCG,385346,1.06045495324428,NA,75,NA,20.5053602
Warwick Hospital,warwick_hospital,RJC02,Warwick Hospital,CV34 5BW,England,-1.5832006931304932,52.28995132446289,E38000164,-1.5624306047376955,CV34,Warwick,21871.793546802062,270064,NHS South Warwickshire CCG,270064,1.0462203592721582,NA,171,NA,18.42168181
University Hospitals of North Midlands NHST,university_hospitam,RJE01,Royal Stoke University Hospital,ST4 6QG,England,-2.2120518684387207,53.00315856933594,E38000175,1.6764429421788385,ST4,Staffordshire,8590.265838099429,264149,NHS Stoke on Trent CCG,264149,1.0270178849144636,NA,15,NA,22.01453151
University Hospitals of North Midlands NHST,university_hospitam,RJE09,County Hospital,ST16 3SA,England,-2.0977704524993896,52.81129455566406,E38000173,-1.730033852295302,ST16,Staffordshire,21813.790313803736,155803,NHS Stafford and Surrounds CCG,155803,1.0356281116436126,NA,165,NA,NA
Northern Lincolnshire and Goole NHSFT,northern_lincolnsh,RJL30,Diana,DN33 2BA,England,-0.095144,53.544828,E38000119,0.48670164702215873,DN33,North East Lincolnshire,11304.308040960215,159821.00000000003,NHS North East Lincolnshire CCG,159821,1.0012843323977547,NA,57,NA,24.18139337
Northern Lincolnshire and Goole NHSFT,northern_lincolnsh,RJL32,Scunthorpe General Hospital,DN15 7BH,England,-0.6675840616226196,53.58758544921875,E38000122,-0.8920203361850594,DN15,North Lincolnshire,15193.712903225807,172005,NHS North Lincolnshire CCG,172005,1.0272266880068799,NA,90,NA,24.18139337
Macclesfield District General Hospital,macclesfield_distr,RJN71,Macclesfield District General Hospital,SK10 3BL,England,-2.141059637069702,53.262325286865234,E38000056,-1.7703112113079165,SK10,Cheshire East,21936.05326120878,197295.99999999997,NHS Eastern Cheshire CCG,197296,1.0143544605766461,NA,175,NA,19.07936392
Countess Of Chester Hospital,countess_of_cheste,RJR05,Countess Of Chester Hospital,CH2 1HJ,England,-2.899009943008423,53.21177291870117,E38000196,-1.283603738783282,CH2,Cheshire West and Chester,17594.426404361224,234251,NHS West Cheshire CCG,234251,1.0300777007268778,NA,144,NA,23.24654306
King's College Hospital,kings_college_hosp,RJZ01,King's College Hospital,SE5 9RS,England,-0.0939013883471489,51.46807861328125,E38000092,4.540694344534207,SE5,Lambeth,11592.460686066679,325917,NHS Lambeth CCG,325917,1.075328454630039,NA,38,NA,20.19783606
Sherwood Forest Hospitals NHSFT,sherwood_forest_ho,RK5BC,King's Mill Hospital,NG17 4JL,England,-1.233566164970398,53.13455581665039,E38000103,-0.022893129623675224,NG17,Ashfield,10923.991018501885,200715,NHS Mansfield and Ashfield CCG,200715,1.0461316349080598,NA,46,NA,22.00059652
University Hospital Plymouth,university_hospitae,RK950,Derriford Hospital,PL6 8DH,England,-4.11367130279541,50.41672897338867,E38000230,-0.9462035169519096,PL6,Plymouth,15893.936825769333,1194166,NHS Devon CCG,1194166,1.0532960761795893,NA,98,NA,19.73601668
University Hospitals Coventry and Warwickshire,university_hospitai,RKB01,University Hospital (Coventry),CV2 2DX,England,-1.4383885860443115,52.42121505737305,E38000038,1.271060675231041,CV2,Coventry,14598.659818634138,473979,NHS Coventry and Rugby CCG,473979,1.1365448943134269,NA,81,NA,21.49988233
Whittington Health NHST,whittington_health,RKEQ4,The Whittington Hospital,N19 5NF,England,-0.13862308859825134,51.56631088256836,E38000088,4.5367257516734645,N19,Islington,11430.650559318165,239142,NHS Islington CCG,239142,1.1601795027289266,NA,23,NA,23.8848606
The Royal Wolverhampton NHST,the_royal_wolverha,RL403,New Cross Hospital,WV10 0QP,England,-2.0955405235290527,52.599727630615234,E38000210,2.577820229620225,WV10,Wolverhampton,8069.9837455009865,262007.99999999997,NHS Wolverhampton CCG,262008,1.0502585481220186,NA,16,NA,23.38914701
Hereford Hospital,hereford_hospital,RLQ01,The County Hospital,HR1 2ER,England,-2.7058348,52.0574483,E38000078,-1.2549485171102726,HR1,Hereford,15622.627677702045,192107,NHS Herefordshire CCG,192107,1.0470358682559666,NA,96,NA,18.47610543
George Eliot Hospital,george_eliot_hospi,RLT01,George Eliot Hospital,CV10 7DJ,England,-1.4784245491027832,52.5125846862793,E38000195,-0.6463985156566265,CV10,Nuneaton & Bedworth,14012.218639262934,193752,NHS Warwickshire North CCG,193752,1.034635224760501,NA,84,NA,20.79574674
Norfolk and Norwich University Hospital NHSFT,norfolk_and_norwic,RM102,Norfolk And Norwich University Hospital,NR4 7UY,England,1.2210814952850342,52.61808395385742,E38000219,-1.593346057296237,NR4,Norfolk,18040.841488114274,235551,NHS South Norfolk CCG,235551,1.0154986290503372,NA,136,NA,19.33826483
Salford Royal NHSFT,salford_royal_nhsf,RM301,Salford Royal,M6 8HD,England,-2.3234095573425293,53.487548828125,E38000143,1.6434055054175725,M6,Salford,9172.949604743082,254408.00000000003,NHS Salford CCG,254408,1.0875250605942728,NA,17,NA,24.55905509
Bolton NHST,bolton_nhst,RMC01,Royal Bolton Hospital,BL4 0JR,England,-2.4298787117004395,53.55396270751953,E38000016,0.7836458040842943,BL4,Bolton,10702.879579548933,285371.99999999994,NHS Bolton CCG,285372,1.0310203550757624,NA,41,NA,27.12184553
Tameside Hospital Integrated Care NHSFT,tameside_hospital,RMP01,Tameside & Glossop Integrated Care Nhs Foundation Trust,OL6 9RW,England,-2.071418523788452,53.49153518676758,E38000182,0.9702490238891366,OL6,Tameside,9888.123170849889,258612.99999999997,NHS Tameside and Glossop CCG,258613,1.0245588596512079,NA,35,NA,28.66225794
Norfolk and Suffolk NHS Foundation Trust,norfolk_and_suffol,RMY01,Wellbeing Norfolk & Waveney,NR6 5BE,England,1.25088632106781,52.65953063964844,E38000218,-0.3256597623756753,NR6,Norfolk,17250.12051530683,219070.99999999997,NHS Norwich CCG,219071,1.1448527067775263,NA,97,NA,NA
Great Western NHS FT,great_western_nhs,RN325,The Great Western Hospital,SN3 6BB,England,-1.727185845375061,51.53853225708008,E38000181,-0.7089409614137444,SN3,Swindon,18353.7880794702,228257.99999999997,NHS Swindon CCG,228258,1.065889011337953,NA,132,NA,15.93909569
Royal Hampshire County Hospital,royal_hampshire_co,RN506,Basingstoke And North Hampshire Hospital,RG24 9NA,England,-1.1099036931991577,51.280635833740234,E38000120,-1.1052530619133678,RG24,Hampshire,21839.157816202933,223795,NHS North Hampshire CCG,223795,1.0507547479869475,NA,172,NA,15.10991099
Royal Hampshire County Hospital,royal_hampshire_co,RN541,Royal Hampshire County Hospital,SO22 5DG,England,-1.3291560411453247,51.061710357666016,E38000198,-1.8035929887939162,SO22,Winchester,22887.71798201474,566879,NHS West Hampshire CCG,566879,1.0494300027028127,NA,181,NA,15.10991099
Dartford and Gravesham NHS Trust,dartford_and_grave,RN707,Darent Valley Hospital,DA2 8DA,England,0.2586592435836792,51.43495178222656,E38000043,-0.07062724620509174,DA2,Dartford,16861.133497027655,264478,"NHS Dartford, Gravesham and Swanley CCG",264478,1.075118191537364,NA,103,NA,NA
The Dudley Group NHSFT,the_dudley_group_n,RNA01,Russells Hall Hospital,DY1 2HQ,England,-2.1185030937194824,52.50294876098633,E38000046,0.35841630940225333,DY1,Dudley,13015.319021518473,320626.00000000006,NHS Dudley CCG,320626,1.0246097307661581,NA,77,NA,25.09735735
Kettering General Hospital NHSFT,kettering_general,RNQ51,Kettering General Hospital,NN16 8UZ,England,-0.741529107093811,52.401145935058594,E38000108,-0.5814874469736742,NN16,Kettering,17170.27343253211,659823,NHS Nene CCG,659823,1.0727486152140302,NA,129,NA,20.03305897
Northampton General Hospital NHS Trust,northampton_genera,RNS01,Northampton General Hospital (Acute),NN1 5BD,England,-0.8838294744491577,52.236053466796875,E38000108,-0.5814874469736742,NN1,Northampton,17170.27343253211,659823,NHS Nene CCG,659823,1.0727486152140302,NA,129,NA,18.43194734
Doncaster and Bassetlaw Teaching Hospitals NHFT,doncaster_and_bass,RP5BA,Bassetlaw Hospital,S81 0BD,England,-1.1098852157592773,53.31767654418945,E38000008,-0.734268418277534,S81,Bassetlaw,14168.37626151821,116839,NHS Bassetlaw CCG,116839,1.0352285514296093,NA,79,NA,25.2215654
Doncaster and Bassetlaw Teaching Hospitals NHFT,doncaster_and_bass,RP5DR,Doncaster Royal Infirmary,DN2 5LT,England,-1.1092113256454468,53.53075408935547,E38000044,0.8224480437761589,DN2,Doncaster,10402.434285155487,310542,NHS Doncaster CCG,310542,1.0269178113901363,NA,34,NA,25.2215654
Great Ormond Street Hospital,great_ormond_stree,RP401,Great Ormond Street Hospital,WC1N 3JH,England,-0.11990952491760254,51.52220916748047,E38000027,4.9936313463509014,WC1N,Camden,16052.945986403043,262226,NHS Camden CCG,262226,1.1901079250968967,NA,94,NA,19.77721526
Medway NHSFT,medway_nhsft,RPA02,Medway Maritime Hospital,ME7 5NY,England,0.542076051235199,51.379859924316406,E38000104,0.39101485180883244,ME7,Medway,13904.973744706595,277855,NHS Medway CCG,277855,1.052780145874775,NA,73,NA,20.37208584
The Royal Marsden NHST,the_royal_marsden,RPY01,The Royal Marsden Hospital (London),SW3 6JJ,England,-0.17255078256130219,51.490562438964844,E38000202,3.6833235765625165,SW3,Kensington and Chelsea,16902.72077979619,226099.00000000003,NHS West London CCG,226099,1.0247463050503312,NA,78,NA,16.07952645
The Royal Marsden NHST,the_royal_marsden,RPY02,The Royal Marsden Hospital (Surrey),SM2 5PT,England,-0.19110026955604553,51.34347915649414,E38000179,0.7854452208359743,SM2,Sutton,20158.11244099798,204525,NHS Sutton CCG,204525,1.0756208387239279,NA,161,NA,16.07952645
Mid and South Essex University Hospitals Group,mid_and_south_esseb,RQ8L0,Broomfield Hospital,CM1 7ET,England,0.46673330664634705,51.77461242675781,E38000106,-1.2402368144672706,CM1,Chelmsford,20366.327294161445,393065.00000000006,NHS Mid Essex CCG,393065,1.0425491283025174,NA,160,NA,19.98992083
BirminghamWomens Childrens Hospital,birminghamwomens_c,RQ301,Birmingham Children's Hospital,B4 6NH,England,-1.8937397003173828,52.48489761352539,E38000220,1.6044457153363676,B4,Birmingham,11080.681511230106,1179020,NHS Birmingham and Solihull CCG,1179020,1.0540412723018924,NA,20,NA,24.48887247
Chelsea & Westminster Hospital,chelsea__westminst,RQM01,Chelsea And Westminster Hospital,SW10 9NH,England,-0.1816297024488449,51.484310150146484,E38000202,3.6833235765625165,SW10,Kensington and Chelsea,16902.72077979619,226099.00000000003,NHS West London CCG,226099,1.0247463050503312,NA,78,NA,19.88733045
The Princess Alexandra Hospital,the_princess_alexa,RQWG0,Princess Alexandra Hospital,CM20 1QX,England,0.08547129482030869,51.77153015136719,E38000197,-0.6309830884721978,CM20,Harlow,19791.474051191526,306910,NHS West Essex CCG,306910,1.0729393174524378,NA,148,NA,19.46649994
Homerton University Hospital,homerton_universit,RQXM1,Homerton University Hospital,E9 6SR,England,-0.04608435556292534,51.55063247680664,E38000035,4.703750131040954,E9,Hackney,14048.93409174312,288371,NHS City and Hackney CCG,288371,1.1369078830649135,NA,9,NA,25.09779396
Gateshead Health NHSFT,gateshead_health_n,RR7EN,Queen Elizabeth Hospital,NE9 6SX,England,-1.5807654857635498,54.93938446044922,E38000212,1.6444674032131783,NE9,Gateshead,11562.254756871036,502704,NHS Newcastle Gateshead CCG,502704,1.046447581241114,NA,55,NA,24.97474457
The Leeds Teaching Hospitals NHST,the_leeds_teaching,RR801,Leeds General Infirmary,LS1 3EX,England,-1.552119255065918,53.80146026611328,E38000225,1.0219069128551697,LS1,Leeds,13247.011868043448,789194.0000000001,NHS Leeds CCG,789194,1.05017931162964,NA,67,NA,NA
The Leeds Teaching Hospitals NHST,the_leeds_teaching,RR813,St James's Hospital,LS9 7TF,England,-1.5203437805175781,53.8068733215332,E38000225,1.0219069128551697,LS9,Leeds,13247.011868043448,789194.0000000001,NHS Leeds CCG,789194,1.05017931162964,NA,67,NA,24.59874564
Royal Albert Edward Infirmary,royal_albert_edwar,RRF02,Royal Albert Edward Infirmary,WN1 2NN,England,-2.6290764808654785,53.557743072509766,E38000205,0.3090795813707732,WN1,Wigan,12319.212774372158,326088,NHS Wigan Borough CCG,326088,1.025921113484705,NA,72,NA,23.63575769
Cambridge and Peterborough NHS Foundation Trust,cambridge_and_pete,RT113,Fulbourn Hospital,CB21 5EF,England,0.18831537663936615,52.18449020385742,E38000026,-0.732581452258259,CB21,Cambridge,20399.11658448095,889111.9999999999,NHS Cambridgeshire and Peterborough CCG,889112,1.0599177445312034,NA,143,NA,NA
Royal Brompton and Harefield NHFT,royal_brompton_and,RT301,Harefield Hospital,UB9 6JH,England,-0.4827539324760437,51.60673141479492,E38000082,1.670894113985834,UB9,South Buckinghamshire,16408.8142044907,304824,NHS Hillingdon CCG,304824,1.112756264236902,NA,108,NA,NA
Royal Brompton and Harefield NHFT,royal_brompton_and,RT302,Royal Brompton Hospital,SW3 6NP,England,-0.1708405464887619,51.489742279052734,E38000202,3.6833235765625165,SW3,Kensington and Chelsea,16902.72077979619,226099.00000000003,NHS West London CCG,226099,1.0247463050503312,NA,78,NA,16.07952645
The Newcastle upon Tyne Hospitals NHSFT,the_newcastle_upon,RTD02,The Royal Victoria Infirmary,NE1 4LP,England,-1.6188395023345947,54.98021697998047,E38000212,1.6444674032131783,NE1,Newcastle,11562.254756871036,502704,NHS Newcastle Gateshead CCG,502704,1.046447581241114,NA,55,NA,24.31408387
Gloucester Royal Hospital,gloucester_royal_h,RTE03,Gloucestershire Royal Hospital,GL1 3NN,England,-2.232058525085449,51.86638259887695,E38000062,-1.2405148320495687,GL1,Gloucester,20023.890195388136,633558,NHS Gloucestershire CCG,633558,1.0612646235074976,NA,154,NA,17.44789039
Northumbria Healthcare NHS Trust,northumbria_health,RTF86,Northumbria Specialist Emergency Care Hospital,NE23 6NZ,England,-1.5696691274642944,55.07406997680664,E38000130,-1.0911583822434996,NE23,Northumberland,16652.272830046477,320274,NHS Northumberland CCG,320274,1.0134355183717898,NA,93,NA,22.5620786
Northumbria Healthcare NHS Trust,northumbria_health,RTFED,Wansbeck General Hospital,NE63 9JJ,England,-1.5465863943099976,55.18431091308594,E38000130,-1.0911583822434996,NE63,Northumberland,16652.272830046477,320274,NHS Northumberland CCG,320274,1.0134355183717898,NA,93,NA,NA
Northumbria Healthcare NHS Trust,northumbria_health,RTFFS,North Tyneside General Hospital,NE29 8NH,England,-1.4673244953155518,55.02524185180664,E38000127,0.2366436957366364,NE29,North Tyneside,14507.718213538032,205985,NHS North Tyneside CCG,205985,1.0258166044989816,NA,91,NA,NA
University Hospitals of Derby and Burton NHFT,university_hospitaj,RTG02,Burton Hospital,DE13 0RB,England,-1.6563690900802612,52.817779541015625,E38000053,-0.7475058894814636,DE13,East Staffordshire,17141.81754300945,128417.99999999999,NHS East Staffordshire CCG,128418,1.0439808792924037,NA,119,NA,20.91356598
Oxford University Hospitals NHSFT,oxford_university,RTH08,John Radcliffe Hospital,OX3 9DU,England,-1.2197920083999634,51.76387405395508,E38000136,-1.0971447800110636,OX3,Oxford,22969.782424142843,672414,NHS Oxfordshire CCG,672414,1.0498070293764987,NA,178,NA,16.15375626
Ashford and St Peters Hospital NHSFT,ashford_and_st_pet,RTK01,St Peter's Hospital,KT16 0PZ,England,-0.5270460247993469,51.37783432006836,E38000128,-1.122346406059017,KT16,Runnymede,23914.534108832806,348734,NHS North West Surrey CCG,348734,1.0394208185795868,NA,174,NA,15.00594629
Surrey and Sussex Healthcare NHST,surrey_and_sussex,RTP04,East Surrey Hospital,RH1 5RH,England,-0.1619950234889984,51.21919250488281,E38000054,-1.3390071082933352,RH1,Reigate and Banstead,24088.137776571195,186016.00000000003,NHS East Surrey CCG,186016,1.0708545374997123,NA,170,NA,16.89117069
Gloucestershire Health and Care NHS Foundation Trust,gloucestershire_he,RTQ01,Charlton Lane Hospital,GL53 9DZ,England,-2.0736736,51.8810587,E38000062,-1.2405148320495687,GL53,Tewkesbury,20023.890195388136,633558,NHS Gloucestershire CCG,633558,1.0612646235074976,NA,154,NA,NA
South Tees Hospital NHS Foundation Trust,south_tees_hospita,RTRAT,The James Cook University Hospital,TS4 3BW,England,-1.2147899866104126,54.5517578125,E38000162,1.5977367186306726,TS4,Middlesbrough,9324.290838169536,277263,NHS South Tees CCG,277263,1.0134289024778043,NA,26,NA,23.49531851
University Hospitals Of Morecambe Bay,university_hospital,RTX02,Royal Lancaster Infirmary,LA1 4RP,England,-2.7992172241210938,54.04273223876953,E38000228,-1.1585224555982556,LA1,Lancaster,16389.042569391568,330572,NHS Morecambe Bay CCG,330572,2.1050044255958635,NA,99,NA,21.30684468
University Hospitals Of Morecambe Bay,university_hospital,RTXBU,Furness General Hospital,LA14 4LF,England,-3.2078845500946045,54.13640213012695,E38000228,-1.1585224555982556,LA14,Barrow-in-Furness,16389.042569391568,330572,NHS Morecambe Bay CCG,330572,2.1050044255958635,NA,99,NA,21.30684468
University Hospitals Of Morecambe Bay,university_hospital,RTXBW,Westmorland General Hospital,LA9 7RG,England,-2.732536792755127,54.30670928955078,E38000228,-1.1585224555982556,LA9,South Lakeland,16389.042569391568,330572,NHS Morecambe Bay CCG,330572,2.1050044255958635,NA,99,NA,21.30684468
Southmead Hospital,southmead_hospital,RVJ01,Southmead Hospital,BS10 5NB,England,-2.5910003185272217,51.49481201171875,E38000222,-0.29553926527199337,BS10,Bristol,17490.317487720662,959967.9999999999,"NHS Bristol, North Somerset and South Gloucestershire CCG",959968,1.0743100405453647,NA,118,NA,18.40167347
Epsom & St Helier NHSFT,epsom__st_helier_n,RVR05,St Helier Hospital,SM5 1AA,England,-0.18362735211849213,51.380313873291016,E38000179,0.7854452208359743,SM5,Sutton,20158.11244099798,204525,NHS Sutton CCG,204525,1.0756208387239279,NA,161,NA,16.39157391
East Kent Hospitals NHSFT,east_kent_hospital,RVV01,William Harvey Hospital (Ashford),TN24 0LZ,England,0.9162230491638184,51.14148712158203,E38000002,-0.39039041968852745,TN24,Ashford,15518.462574326688,129281,NHS Ashford CCG,129281,1.0960103767506528,NA,109,NA,20.0538634
East Kent Hospitals NHSFT,east_kent_hospital,RVV09,Queen Elizabeth The Queen Mother Hospital,CT9 4AN,England,1.3893986940383911,51.3780517578125,E38000184,0.8362759957351174,CT9,Kent,10709.07911576498,141819,NHS Thanet CCG,141819,1.0568837285558852,NA,28,NA,20.0538634
East Kent Hospitals NHSFT,east_kent_hospital,RVVKC,Kent And Canterbury Hospital,CT1 3NG,England,1.0870975255966187,51.26658630371094,E38000029,-0.6330512901976478,CT1,Kent,18176.514700588024,213598,NHS Canterbury and Coastal CCG,213598,1.0772815533980582,NA,123,NA,20.0538634
University Hospital of North Tees,university_hospitac,RVWAE,University Hospital Of North Tees,TS19 8PE,England,-1.3475654125213623,54.58285903930664,E38000075,1.3477134232942412,TS19,Stockton-on-Tees,10645.315312738368,290455,NHS Hartlepool and Stockton-on-Tees CCG,290455,1.0240341562132014,NA,64,NA,26.54376712
Southport and Ormskirk Hospital NHS Trust,southport_and_orms,RVY01,Southport And Formby District General Hospital,PR8 6PN,England,-2.9788076877593994,53.63356018066406,E38000170,-1.2378004546666668,PR8,Sefton,18240.736428395972,116158.99999999999,NHS Southport and Formby CCG,116159,1.0169225920543483,NA,107,NA,26.20636532
Merseycare NHS Foundation Trust,merseycare_nhs_fou,RW404,Ashworth Hospital,L31 1HW,England,-2.9153599739074707,53.518672943115234,E38000161,0.7064193132689106,L31,Sefton,9906.12668762715,159237,NHS South Sefton CCG,159237,0.997950665563661,NA,37,NA,NA
Fairfield General Hospital,fairfield_general,RW601,Fairfield General Hospital,BL9 7TD,England,-2.255607843399048,53.600425720214844,E38000024,-0.2032971343743102,BL9,Bury,13134.957027122226,190108.00000000003,NHS Bury CCG,190108,1.0272776396844268,NA,80,NA,27.70268959
The Royal Oldham Hospital,the_royal_oldham_h,RW603,Royal Oldham Hospital,OL1 2JH,England,-2.1218161582946777,53.553253173828125,E38000135,1.8082607020549422,OL1,Oldham,9508.521052631579,235622.99999999997,NHS Oldham CCG,235623,1.0476929438809766,NA,24,NA,27.70268959
Hull University Teaching Hospitals,hull_university_te,RWA01,Hull Royal Infirmary,HU3 2JZ,England,-0.35816898941993713,53.74443435668945,E38000085,2.552530733456664,HU3,Kingston upon Hull,7480.3724027092185,260645.00000000003,NHS Hull CCG,260645,1.0165323744374157,NA,8,NA,NA
Hull University Teaching Hospitals,hull_university_te,RWA16,Castle Hill Hospital,HU16 5JQ,England,-0.4449694752693176,53.7767333984375,E38000052,-1.5252833680793567,HU16,East Riding of Yorkshire,19632.143464077082,317404,NHS East Riding of Yorkshire CCG,317404,1.0142938858726045,NA,150,NA,23.85393185
United Lincolnshire Hospital NHST,united_lincolnshir,RWDDA,Lincoln County Hospital,LN2 5QY,England,-0.5196201801300049,53.233577728271484,E38000100,-0.7013869636014075,LN2,West Lindsey,16873.8717120443,241193.00000000003,NHS Lincolnshire West CCG,241193,1.0705510035597299,NA,112,NA,23.68945774
United Lincolnshire Hospital NHST,united_lincolnshir,RWDLA,Pilgrim Hospital,PE21 9QS,England,-0.009952853433787823,52.991127014160156,E38000099,-0.6789454026912778,PE21,Boston,11514.497538885607,237642,NHS Lincolnshire East CCG,237642,1.0445480798393016,NA,49,NA,23.68945774
United Lincolnshire Hospital NHST,united_lincolnshir,RWDLP,Grantham And District Hospital,NG31 8DG,England,-0.6406991481781006,52.92108917236328,E38000165,-0.8460108933008236,NG31,South Kesteven,18096.817511920242,126299.99999999999,NHS South West Lincolnshire CCG,126300,1.0475937691810022,NA,142,NA,23.68945774
University Hospitals of Leicester,university_hospitak,RWEAA,Leicester Royal Infirmary,LE1 5WW,England,-1.1359461545944214,52.62678527832031,E38000097,3.754855743517658,LE1,Leicester,9319.274472372468,355218,NHS Leicester City CCG,355218,1.0769435997562447,NA,18,NA,21.10790778
Maidstone and Tunbridge Wells NHST,maidstone_and_tunb,RWF03,Maidstone Hospital,ME16 9QQ,England,0.4839882254600525,51.27366256713867,E38000199,-1.1439600191493164,ME16,Maidstone,20938.873874294248,490426,NHS West Kent CCG,490426,1.0685221013734922,NA,164,NA,18.580202
Maidstone and Tunbridge Wells NHST,maidstone_and_tunb,RWFTW,Tunbridge Wells Hospital At Pembury,TN2 4QJ,England,0.30748459696769714,51.14845275878906,E38000199,-1.1439600191493164,TN2,Tunbridge Wells,20938.873874294248,490426,NHS West Kent CCG,490426,1.0685221013734922,NA,164,NA,18.580202
West Hertfordshire Hospitals NHST,west_hertfordshire,RWG02,Watford General Hospital,WD18 0HB,England,-0.40527793765068054,51.648590087890625,E38000079,-0.47189668740813423,WD18,Watford,22728.121945432977,595670,NHS Herts Valleys CCG,595670,1.057727821578237,NA,173,NA,16.69374567
East and North Hertfordshire NHST,east_and_north_her,RWH01,Lister Hospital,SG1 4AB,England,-0.21271154284477234,51.92461013793945,E38000049,-0.541744995533792,SG1,Stevenage,21159.524590163935,569078,NHS East and North Hertfordshire CCG,569078,1.0646663411366983,NA,159,NA,17.27272378
Stockport NHSFT,stockport_nhsft,RWJ09,Stepping Hill Hospital,SK2 7JE,England,-2.132004976272583,53.38378143310547,E38000174,-0.718200525843753,SK2,Stockport,15881.710380924687,291775,NHS Stockport CCG,291775,1.0300061777424765,NA,110,NA,23.0465144
Worcestershire Acute Hospitals NHS Trust,worcestershire_acu,RWP50,Worcestershire Royal Hospital,WR5 1DD,England,-2.1793410778045654,52.1915168762207,E38000166,-1.381885032945201,WR5,Worcester,18026.18422939068,307344,NHS South Worcestershire CCG,307344,1.0585548816399912,NA,130,NA,20.49980553
Devon Partnership NHS Trust,devon_partnership,RWV62,Wonford House,EX2 5AF,England,-3.506284475326538,50.71540069580078,E38000230,-0.9462035169519096,EX2,Exeter,15893.936825769333,1194166,NHS Devon CCG,1194166,1.0532960761795893,NA,98,NA,18.29886947
Warrington and Halton Teaching Hospitals NHS Foundation Trust,warrington_and_hal,RWWWH,Warrington Hospital,WA5 1QG,England,-2.6107027530670166,53.393978118896484,E38000194,-0.018768137689710203,WA5,Warrington,16683.142804518666,209546.99999999997,NHS Warrington CCG,209547,1.0361918230907687,NA,126,NA,25.81459269
Calderdale and Huddersfield NHS Trust,calderdale_and_hud,RWY01,Huddersfield Royal Infirmary,HD3 3EA,England,-1.816323161125183,53.65547561645508,E38000064,0.3338878268342915,HD3,Kirklees,15550.801026694046,245977,NHS Greater Huddersfield CCG,245977,1.0363864650439663,NA,89,NA,26.49275358
NUH Nottingham University Hosptial,nuh_nottingham_uni,RX1CC,Nottingham University Hospitals Nhs Trust - City Campus,NG5 1PB,England,-1.1584131717681885,52.99123764038086,E38000132,3.2785971768079634,NG5,Nottingham,8126.121404813148,331069,NHS Nottingham City CCG,331069,1.0830574456948443,NA,10,NA,21.62513959
NUH Nottingham University Hosptial,nuh_nottingham_uni,RX1RA,Nottingham University Hospitals Nhs Trust - Queen's Medical Centre Campus,NG7 2UH,England,-1.1859418153762817,52.94380187988281,E38000132,3.2785971768079634,NG7,Nottingham,8126.121404813148,331069,NHS Nottingham City CCG,331069,1.0830574456948443,NA,10,NA,21.62513959
"Cumbria, Northumberland, Tyne and Wear NHS Foundation Trust",cumbria_northumber,RX4E4,St Nicholas Hospital,NE3 3XT,England,-1.6330841779708862,55.00648880004883,E38000212,1.6444674032131783,NE3,Newcastle,11562.254756871036,502704,NHS Newcastle Gateshead CCG,502704,1.046447581241114,NA,55,NA,NA
"Tees, Esk and Wear Valleys NHS Foundation Trust",tees_esk_and_wear,RX301,Tees,TS19 0EA,England,-1.3298017,54.5759759,E38000075,1.3477134232942412,TS19,Stockton-on-Tees,10645.315312738368,290455,NHS Hartlepool and Stockton-on-Tees CCG,290455,1.0240341562132014,NA,64,NA,26.54376712
East Sussex Healthcare NHS Trust,east_sussex_health,RXC01,Conquest Hospital,TN37 7RD,England,0.5672841668128967,50.88516616821289,E38000076,0.030220124110404877,TN37,Hastings,12744.768688683156,188511,NHS Hastings and Rother CCG,188511,1.0424071841718185,NA,56,NA,18.45188995
East Sussex Healthcare NHS Trust,east_sussex_health,RXC02,Eastbourne District General Hospital,BN21 2UD,England,0.27112165093421936,50.78696823120117,E38000055,-0.6089879132322088,BN21,Eastbourne,17031.182467372568,191604,"NHS Eastbourne, Hailsham and Seaford CCG",191604,1.0617827159125544,NA,106,NA,18.45188995
Mid Yorkshire Hospitals NHST,mid_yorkshire_hosp,RXF05,Pinderfields Hospital,WF1 4DG,England,-1.4885402917861938,53.692420959472656,E38000190,0.34929793384907737,WF1,Wakefield,11787.635263246995,345038,NHS Wakefield CCG,345038,1.0589282371246973,NA,54,NA,25.9155988
Brighton and Sussex University Hospitals NHST,brighton_and_susse,RXH01,Royal Sussex County Hospital,BN2 5BE,England,-0.11816248297691345,50.8194694519043,E38000021,1.438939040664007,BN2,Brighton and Hove,13336.077162596088,290395,NHS Brighton and Hove CCG,290395,1.0622821168457286,NA,100,NA,17.44499941
Brighton and Sussex University Hospitals NHST,brighton_and_susse,RXH09,Princess Royal Hospital,RH16 4EX,England,-0.09026799350976944,50.99109649658203,E38000083,-1.6486751980397767,RH16,Mid Sussex,25353.153130204762,238955.00000000003,NHS Horsham and Mid Sussex CCG,238955,1.07955905938693,NA,189,NA,17.44499941
Sandwell and West Birmingham NHST,sandwell_and_west,RXK01,Sandwell District General Hospital,B71 4HJ,England,-1.988857388496399,52.528079986572266,E38000144,3.563859806594868,B71,Sandwell,6727.832876211373,504641,NHS Sandwell and West Birmingham CCG,504641,1.0755097386889907,NA,5,NA,25.61669633
Sandwell and West Birmingham NHST,sandwell_and_west,RXK02,City Hospital,B18 7QH,England,-1.9324921369552612,52.48863220214844,E38000144,3.563859806594868,B18,Birmingham,6727.832876211373,504641,NHS Sandwell and West Birmingham CCG,504641,1.0755097386889907,NA,5,NA,25.61669633
Blackpool Teaching Hospitals NHSFT,blackpool_teaching,RXL01,Blackpool Victoria Hospital,FY3 8NR,England,-3.0158531665802,53.82060623168945,E38000015,2.0958453729815965,FY3,Blackpool,4666.687937587518,139305,NHS Blackpool CCG,139305,0.9805722732552001,NA,2,NA,26.10509592
Royal Preston Hospital,royal_preston_hosp,RXN02,Royal Preston Hospital,PR2 9HT,England,-2.70682954788208,53.79151153564453,E38000227,0.164363765873978,PR2,Preston,13689.163659961065,202562,NHS Greater Preston CCG,202562,1.0045127248923889,NA,85,NA,24.60487045
University Hospital of North Durham,university_hospitab,RXPCP,University Hospital Of North Durham,DH1 5TW,England,-1.5938187837600708,54.78850173950195,E38000116,-0.7281221053881309,DH1,County Durham,16013.41120354964,251666,NHS North Durham CCG,251666,1.0475433309468707,NA,88,NA,23.94938359
Darlington Memorial Hospital,darlington_memoria,RXPDA,Darlington Memorial Hospital,DL3 6HX,England,-1.5637173652648926,54.53037643432617,E38000042,0.8359019758411391,DL3,Darlington,11843.340080018828,106566,NHS Darlington CCG,106566,1.009491872229169,NA,76,NA,23.94938359
Buckinghamshire Healthcare NHS Trust,buckinghamshire_he,RXQ02,Stoke Mandeville Hospital,HP21 8AL,England,-0.8019975423812866,51.797977447509766,E38000223,-1.4007615718219686,HP21,Aylesbury Vale,24818.613736558033,542512,NHS Buckinghamshire CCG,542512,1.0677730584674008,NA,184,NA,15.92163082
Buckinghamshire Healthcare NHS Trust,buckinghamshire_he,RXQ50,Wycombe Hospital,HP11 2TT,England,-0.7534134984016418,51.626441955566406,E38000223,-1.4007615718219686,HP11,Wycombe,24818.613736558033,542512,NHS Buckinghamshire CCG,542512,1.0677730584674008,NA,184,NA,15.92163082
East Lancashire Hospitals NHST,east_lancashire_ho,RXR20,Royal Blackburn Hospital,BB2 3HH,England,-2.4627013206481934,53.735565185546875,E38000014,1.7069579820742775,BB2,Blackburn with Darwen,8161.086487586487,148941.99999999997,NHS Blackburn with Darwen CCG,148942,1.0098515821518892,NA,12,NA,24.91820742
The Royal Shrewsbury Hospital,the_royal_shrewsbu,RXWAS,Royal Shrewsbury Hospital,SY3 8XQ,England,-2.7937374114990234,52.7093620300293,E38000147,-1.4797351692141338,SY3,Shropshire,17586.457890541977,320274,NHS Shropshire CCG,320274,1.0462060111913605,NA,117,NA,20.40802757
Imperial College Healthcare NHST,imperial_college_h,RYJ01,St Mary's Hospital (Hq),W2 1NY,England,-0.17355506122112274,51.516971588134766,E38000202,3.6833235765625165,W2,Westminster,16902.72077979619,226099.00000000003,NHS West London CCG,226099,1.0247463050503312,NA,78,NA,18.72961317
Imperial College Healthcare NHST,imperial_college_h,RYJ02,Charing Cross Hospital,W6 8RF,England,-0.21992097795009613,51.48704528808594,E38000070,4.68261974068134,W6,Hammersmith and Fulham,12996.751857563437,185426.00000000003,NHS Hammersmith and Fulham CCG,185426,1.0160718493312073,NA,71,NA,18.72961317
Imperial College Healthcare NHST,imperial_college_h,RYJ03,Hammersmith Hospital,W12 0HS,England,-0.2347068190574646,51.51742172241211,E38000070,4.68261974068134,W12,Hammersmith and Fulham,12996.751857563437,185426.00000000003,NHS Hammersmith and Fulham CCG,185426,1.0160718493312073,NA,71,NA,18.72961317
Western Sussex Hospitals NHSFT,western_sussex_hos,RYR16,St Richard's Hospital,PO19 6SE,England,-0.7680127620697021,50.84355545043945,E38000213,-0.9980489290238806,PO19,Sussex,19002.78161984585,507449,NHS Coastal West Sussex CCG,507449,1.0746256961944898,NA,139,NA,17.60797615
Western Sussex Hospitals NHSFT,western_sussex_hos,RYR18,Worthing Hospital,BN11 2DH,England,-0.36341506242752075,50.81669235229492,E38000213,-0.9980489290238806,BN11,Worthing,19002.78161984585,507449,NHS Coastal West Sussex CCG,507449,1.0746256961944898,NA,139,NA,17.60797615
Birmingham Community Healthcare NHS Foundation Trust,birmingham_communi,RYW23,Moseley Hall Hospital,B13 8JL,England,-1.8928769826889038,52.445926666259766,E38000220,1.6044457153363676,B13,Birmingham,11080.681511230106,1179020,NHS Birmingham and Solihull CCG,1179020,1.0540412723018924,NA,20,NA,NA
Sheffield Health,sheffield_health,TAHFC,Michael Carlisle Centre,S11 9BF,England,-1.497589349746704,53.361412048339844,E38000146,1.4158899028389818,S11,Sheffield,14145.211985453012,582506,NHS Sheffield CCG,582506,1.0539318036251262,NA,68,NA,NA
Sheffield Health,sheffield_health,TAHXP,Grenoside Grange,S35 8QS,England,-1.49550199508667,53.436370849609375,E38000146,1.4158899028389818,S35,Sheffield,14145.211985453012,582506,NHS Sheffield CCG,582506,1.0539318036251262,NA,68,NA,NA
