redcap_data_access_group_e,redcap_data_access_group_unlabelled,dag_id_e,place_name,postcode,country,lon,lat,ccg,postcode_start,city,imd_average_postcodes_new,tds_mean,w_me_imd,w_me_tds,w_har_tds,w_har_imd,w_med_imd,w_med_tds,prop_within_10_imd_ccg,prop_within_20_imd_ccg,prop_within_10_tds_ccg,prop_within_20_tds_ccg,all_people,ccg_name,updated_all_age_mid_2018,multiplication_factor,scotland_average_imd_rank,average_imd_rank,wales_average_imd_rank,wimd15
University College London Hospitals NHSFT,university_college,14142,University College London Hospitals NHSFT,NW1 2BU,England,-0.1363551,51.5250834,E38000027,NW1,Camden,16465.98531375167,4.355710042695594,16088.619180531732,4.508217805498748,7.617352613705777,11723.505356659885,14838.499999999987,4.9320342024823525,0,0.16029463823761675,0.5123900552787082,0.6669888988735488,262226,NHS Camden CCG,262226,1.1901079250968967,NA,94,NA,NA
Livewell Southwest,livewell_southwest,NR501,Mount Gould Hospital,PL4 7QD,England,-4.111707,50.3789894,E38000230,PL4,Plymouth,16386.417871222075,-1.0334518857634691,16537.218276292137,-1.0478824945579135,-91.88915519735362,7836.803464365692,16438,-1.6447812480388693,0.062447188160974894,0.1259184188289752,0.025121235695599174,0.07773461687050492,1194166,NHS Devon CCG,1194166,1.0532960761795893,NA,98,NA,NA
Cornwall Partnership NHSFT,cornwall_partnersh,RJ827,Cornwall Partnership NHSFT,PL31 2QN,England,-4.7385973,50.470256,E38000089,PL31,Cornwall,13376.637423653527,-1.130531639,13478.10280910649,-1.1435047901523698,-0.14258867576626028,9129.05861558636,12654.575376884422,-1.5704465936279068,0.0464380065709218,0.12439286329040032,0.010050965805761156,0.05063651127459418,568210,NHS Kernow CCG,568210,1.063116023918754,NA,63,NA,NA
Dartford and Gravesham NHS Trust,dartford_and_grave,RN070,Dartford and Gravesham NHS Trust,DA2 8DA,England,0.258883,51.4352521,E38000043,DA2,Dartford,17030.83821656051,-0.3755785139477707,17143.52683954,-0.4169683085924211,-5.302929658558506,11675.2387261934,17150,-0.7889868956315798,0.02015048841661958,0.13504526441164394,0.04247984747905479,0.12000455286403604,264478,"NHS Dartford, Gravesham and Swanley CCG",264478,1.075118191537364,NA,103,NA,NA
North Cumbria Integrated Care NHSFT,north_cumbria_inte,RNN62,North Cumbria Integrated Care NHSFT,CA11 7QE,England,-2.753599,54.667373,E38000215,CA11,Eden,15099.182072829131,-1.2358682826984126,15423.694849252159,-1.3372371559433749,3.2298824982676515,7500.33362112617,15110,-1.9046593495251716,0.07222685308966233,0.1665476621109416,0.017199565921708633,0.0616988817765755,318631,NHS North Cumbria CCG,318631,0.6297827006471148,NA,86,NA,NA
North West Boroughs Healthcare NHSFT,north_west_borough,RTV33,North West Boroughs Healthcare NHSFT,WA2 8WA,England,-2.608387,53.4286247,E38000194,WA2,Warrington,18179.963581183612,-1.2147123573034901,18741.052342075167,-1.382350712574253,-3.211725728513524,9273.53587604344,21083,-2.3585574393965016,0.07962213893523584,0.182910104515816,0.037796008495932745,0.09473262071799543,209546.99999999997,NHS Warrington CCG,209547,1.0361918230907687,NA,126,NA,NA
North West Boroughs Healthcare NHSFT,north_west_borough,RVT33,North West Boroughs Healthcare NHSFT,WA2 8WA,England,-2.608387,53.4286247,E38000194,WA2,Warrington,18179.963581183612,-1.2147123573034901,18741.052342075167,-1.382350712574253,-3.211725728513524,9273.53587604344,21083,-2.3585574393965016,0.07962213893523584,0.182910104515816,0.037796008495932745,0.09473262071799543,209546.99999999997,NHS Warrington CCG,209547,1.0361918230907687,NA,126,NA,NA
East Lancashire Hospitals NHS Trust,east_lancashire_ho,RXR29,East Lancashire Hospitals NHS Trust,BB10 2PQ,England,-2.228172,53.809828,E38000050,BB10,Burnley,12276.483427647534,-0.30054400670088927,12263.840060773242,-0.3221798310402784,1.2405178028347539,1319.2790238988007,9961,-0.8095285315999999,0.2527019309512521,0.36324134735571745,0.05913538209559933,0.1777159389681479,380013.00000000006,NHS East Lancashire CCG,380013,1.0236977931985691,NA,51,NA,NA
Manchester University Hospital,manchester_univers,R0A09,Trafford General Hospital,M41 5SL,England,-2.370682954788208,53.45406723022461,E38000187,M41,Trafford,20299.2585499316,-0.9630903067072504,20407.228164252487,-1.0335006164985743,-1.2799281397633824,10574.54458533969,22793,-1.7787603407478718,0.05147896088764134,0.08957621657883819,0.03693650751617544,0.1146492598575325,236369.99999999997,NHS Trafford CCG,236370,1.0432169054365383,NA,151,NA,NA
Kingston Hospital NHS Foundation Trust,kingston_hospital,RAX01,Kingston Hospital,KT2 7QB,England,-0.2826094925403595,51.414825439453125,E38000090,KT2,Kingston upon Thames,23355.904,0.015334095020000004,23426.7519242784,-0.09165586269523303,0.365875239403529,21049.887815443868,24659,-0.4956689857932267,0,0.010920904660752217,0.03855429214044733,0.1185430463576159,175470,NHS Kingston CCG,175470,1.0962763963513682,NA,177,NA,NA
Luton and Dunstable,luton_and_dunstabl,RC971,Luton And Dunstable Hospital,LU4 0DZ,England,-0.47441545128822327,51.89414596557617,E38000102,LU4,Luton,12357.091680814941,1.819702514023769,12142.319762205894,1.921657321500214,2.0501692247817087,8148.775930819382,11186,2.100497438112903,0.03167799371066087,0.2903184531572187,0.18500893204265728,0.3969074955339787,214109,NHS Luton CCG,214109,1.0536808381848515,NA,45,NA,NA
York Teaching Hospital,york_teaching_hosp,RCBCA,Scarborough Hospital,YO12 6QL,England,-0.4347379803657532,54.281707763671875,E38000145,YO12,North Yorkshire,14236.59585492228,-0.4990067149248705,14156.654622298407,-0.47248768558654625,-3.298920056587628,3834.0685952863882,14921,-1.2435619662113024,0.11357802991139046,0.24547655973662014,0.05852583462574484,0.12080646477838544,113338,NHS Scarborough and Ryedale CCG,113338,1.0279251580369857,NA,70,NA,NA
Liverpool Women's Hospital,liverpool_womens_h,REP01,Liverpool Women's Nhs Foundation Trust,L8 7SS,England,-2.9600625038146973,53.39846420288086,E38000101,L8,Liverpool,6823.02398989899,2.2652371023484847,6975.550865645402,2.181793994121917,12.779332124269942,499.8389986082434,3462,2.5084938481910566,0.48335066410814403,0.6279407823504819,0.23910251599969984,0.44360065606809385,494813.99999999994,NHS Liverpool CCG,494814,1.0608878359400962,NA,6,NA,NA
University Hospitals of North Midlands NHST,university_hospitam,RJE09,County Hospital,ST16 3SA,England,-2.0977704524993896,52.81129455566406,E38000173,ST16,Staffordshire,21518.03462321792,-1.7767061734501017,21728.946178951497,-1.8437599011634438,-12.114514345250774,17475.626439990512,22626,-2.6430241759887325,0,0.04510678462939452,0.005590157069454877,0.05523022008335383,155803,NHS Stafford and Surrounds CCG,155803,1.0356281116436126,NA,165,NA,NA
Norfolk and Suffolk NHS Foundation Trust,norfolk_and_suffol,RMY01,Wellbeing Norfolk & Waveney,NR6 5BE,England,1.25088632106781,52.65953063964844,E38000218,NR6,Norfolk,16207.234463276836,-0.009029958108757055,16485.935182389323,-0.06332601740229386,-30.71974312753988,7750.029841944072,16743.100806451614,-0.3322417944056603,0.12568548190717382,0.2517459699021088,0.035995714216139875,0.16696050260556178,219070.99999999997,NHS Norwich CCG,219071,1.1448527067775263,NA,97,NA,NA
Dartford and Gravesham NHS Trust,dartford_and_grave,RN707,Darent Valley Hospital,DA2 8DA,England,0.2586592435836792,51.43495178222656,E38000043,DA2,Dartford,17030.83821656051,-0.3755785139477707,17143.52683954,-0.4169683085924211,-5.302929658558506,11675.2387261934,17150,-0.7889868956315798,0.02015048841661958,0.13504526441164394,0.04247984747905479,0.12000455286403604,264478,"NHS Dartford, Gravesham and Swanley CCG",264478,1.075118191537364,NA,103,NA,NA
North Cumbria Integrated Care NHSFT,north_cumbria_inte,RNNCB,Cockermouth Community Hospital,CA13 9HT,England,-3.3585805892944336,54.666812896728516,E38000215,CA13,Allerdale,15099.182072829131,-1.2358682826984126,15423.694849252159,-1.3372371559433749,3.2298824982676515,7500.33362112617,15110,-1.9046593495251716,0.07222685308966233,0.1665476621109416,0.017199565921708633,0.0616988817765755,318631,NHS North Cumbria CCG,318631,0.6297827006471148,NA,86,NA,NA
The Leeds Teaching Hospitals NHST,the_leeds_teaching,RR801,Leeds General Infirmary,LS1 3EX,England,-1.552119255065918,53.80146026611328,E38000225,LS1,Leeds,13898.734750098387,0.6415011318606848,14056.37492860956,0.6141845795146728,-3.515561559023085,2279.6272186297388,14381,-0.05414872249770649,0.23470380788949227,0.3308176385307348,0.16805409298529855,0.288346817084714,789194.0000000001,NHS Leeds CCG,789194,1.05017931162964,NA,67,NA,NA
Cambridge and Peterborough NHS Foundation Trust,cambridge_and_pete,RT113,Fulbourn Hospital,CB21 5EF,England,0.18831537663936615,52.18449020385742,E38000026,CB21,Cambridge,19497.63372312335,-0.8667116029947189,19521.302840824406,-0.8586569789075222,-1.661461949698318,11784.570735142499,20484,-1.4407075328333332,0.036106192579873964,0.12237305718016132,0.026685267657527142,0.10549861983032557,889111.9999999999,NHS Cambridgeshire and Peterborough CCG,889112,1.0599177445312034,NA,143,NA,NA
Royal Brompton and Harefield NHFT,royal_brompton_and,RT301,Harefield Hospital,UB9 6JH,England,-0.4827539324760437,51.60673141479492,E38000082,UB9,South Buckinghamshire,17615.2319391635,0.9452373377617237,17481.53043046551,0.9897962726090401,1.5184096598876191,13778.393946898193,15580,1.194829923182796,0,0.043218123941358565,0.08286607090707318,0.23036767712166345,304824,NHS Hillingdon CCG,304824,1.112756264236902,NA,108,NA,NA
Northumbria Healthcare NHS Trust,northumbria_health,RTFED,Wansbeck General Hospital,NE63 9JJ,England,-1.5465863943099976,55.18431091308594,E38000130,NE63,Northumberland,15733.779520295204,-0.7297932944861624,16031.253847760327,-0.8170573343161808,-2.607267185563856,5513.618532514067,15867,-1.3857068478021206,0.1210652220689306,0.20715885934157732,0.039759135266495375,0.1055286240459706,320274,NHS Northumberland CCG,320274,1.0134355183717898,NA,93,NA,NA
Northumbria Healthcare NHS Trust,northumbria_health,RTFFS,North Tyneside General Hospital,NE29 8NH,England,-1.4673244953155518,55.02524185180664,E38000127,NE29,North Tyneside,15897.131994261119,-0.13619310152080344,16050.012883401976,-0.20725981208733021,0.3106611422751517,6106.793587892394,13897,-0.5111292309360461,0.09238001802779866,0.21030273753616766,0.048296572228225955,0.15007395381497105,205985,NHS North Tyneside CCG,205985,1.0258166044989816,NA,91,NA,NA
Gloucestershire Health and Care NHS Foundation Trust,gloucestershire_he,RTQ01,Charlton Lane Hospital,GL53 9DZ,England,-2.0736736,51.8810587,E38000062,GL53,Tewkesbury,20897.92703648176,-1.4434368805387305,20921.267005480884,-1.4659208773906889,-1.6378657450991745,13125.94778080857,21752,-2.09223590071179,0.03030734492046688,0.07679602803425217,0.01863869048416708,0.05823941680179033,633558,NHS Gloucestershire CCG,633558,1.0612646235074976,NA,154,NA,NA
Southern Health NHS Foundation Trust,southern_health_nh,RW154,Moorgreen Hospital,SO30 3JB,England,-1.3233729600906372,50.92864990234375,E38000198,SO30,Eastleigh,23661.762857142858,-1.9817289211451428,23753.409116994768,-1.9955023425866656,-7.905013769839523,20451.839301620766,25238,-2.5377220338181816,0,0.013699188045422065,0.005585195990951131,0.025867399264686824,566879,NHS West Hampshire CCG,566879,1.0494300027028127,NA,181,NA,NA
Merseycare NHS Foundation Trust,merseycare_nhs_fou,RW404,Ashworth Hospital,L31 1HW,England,-2.9153599739074707,53.518672943115234,E38000161,L31,Sefton,11238.144444444444,0.3272274373407407,11444.30799553784,0.17815509194706197,-8.983055386324903,1071.1411339732856,10150,-0.6353001361938462,0.2868504173873806,0.4186031937028402,0.09452006718307387,0.21081196259807977,159237,NHS South Sefton CCG,159237,0.997950665563661,NA,37,NA,NA
Hull University Teaching Hospitals,hull_university_te,RWA01,Hull Royal Infirmary,HU3 2JZ,England,-0.35816898941993713,53.74443435668945,E38000085,HU3,Kingston upon Hull,7399.259085580305,2.205771658749121,7554.377186961305,2.155880124633519,7.510259376018563,682.3509059182927,4547.59284116331,2.714947884988764,0.45543786026848043,0.5492227170971038,0.2749896648284362,0.46110855440200305,260645.00000000003,NHS Hull CCG,260645,1.0165323744374157,NA,8,NA,NA
"Cumbria, Northumberland, Tyne and Wear NHS Foundation Trust",cumbria_northumber,RX4E4,St Nicholas Hospital,NE3 3XT,England,-1.6330841779708862,55.00648880004883,E38000212,NE3,Newcastle,12371.372524752474,1.2848071271590347,12640.033487305134,1.2336855376088416,-5.487838166201016,1899.2032254288301,10428,1.1683028541092149,0.22061404147871214,0.3592261303812936,0.16783411845767301,0.32186906082753425,502704,NHS Newcastle Gateshead CCG,502704,1.046447581241114,NA,55,NA,NA
Birmingham Community Healthcare NHS Foundation Trust,birmingham_communi,RYW23,Moseley Hall Hospital,B13 8JL,England,-1.8928769826889038,52.445926666259766,E38000220,B13,Birmingham,10424.050087361677,1.3877220368322656,10294.254571948217,1.4785206974758067,0.990990825692656,2431.092675482698,7054,1.583729793304931,0.34750207653090454,0.4812557283611159,0.18958190124305435,0.377106067766512,1179020,NHS Birmingham and Solihull CCG,1179020,1.0540412723018924,NA,20,NA,NA
Sheffield Health,sheffield_health,TAHFC,Michael Carlisle Centre,S11 9BF,England,-1.497589349746704,53.361412048339844,E38000146,S11,Sheffield,13922.003302146395,0.9015169744083654,14189.184446117048,0.9412669802715858,-2.58166643658026,3195.2248393835985,13798.290697674416,0.6611775567160499,0.23296447607916076,0.34616191844370703,0.17495811455804075,0.3204335821732664,582506,NHS Sheffield CCG,582506,1.0539318036251262,NA,68,NA,NA
Sheffield Health,sheffield_health,TAHXP,Grenoside Grange,S35 8QS,England,-1.49550199508667,53.436370849609375,E38000146,S35,Sheffield,13922.003302146395,0.9015169744083654,14189.184446117048,0.9412669802715858,-2.58166643658026,3195.2248393835985,13798.290697674416,0.6611775567160499,0.23296447607916076,0.34616191844370703,0.17495811455804075,0.3204335821732664,582506,NHS Sheffield CCG,582506,1.0539318036251262,NA,68,NA,NA
